{
  "city": [
    {
      "id": "100000",
      "name": "中国",
      "parentid": "0",
      "shortname": "中国",
      "leveltype": "0",
      "citycode": "",
      "zipcode": "",
      "lng": "116.3683244",
      "lat": "39.915085",
      "pinyin": "China",
      "status": "0"
    },
    {
      "id": "110000",
      "name": "北京",
      "parentid": "100000",
      "shortname": "北京",
      "leveltype": "1",
      "citycode": "",
      "zipcode": "",
      "lng": "116.405285",
      "lat": "39.904989",
      "pinyin": "Beijing",
      "status": "1"
    },
    {
      "id": "110100",
      "name": "北京市",
      "parentid": "110000",
      "shortname": "北京",
      "leveltype": "2",
      "citycode": "010",
      "zipcode": "100000",
      "lng": "116.405285",
      "lat": "39.904989",
      "pinyin": "Beijing",
      "status": "1"
    },
    {
      "id": "110101",
      "name": "东城区",
      "parentid": "110100",
      "shortname": "东城",
      "leveltype": "3",
      "citycode": "010",
      "zipcode": "100010",
      "lng": "116.41005",
      "lat": "39.93157",
      "pinyin": "Dongcheng",
      "status": "1"
    },
    {
      "id": "110102",
      "name": "西城区",
      "parentid": "110100",
      "shortname": "西城",
      "leveltype": "3",
      "citycode": "010",
      "zipcode": "100032",
      "lng": "116.36003",
      "lat": "39.9305",
      "pinyin": "Xicheng",
      "status": "1"
    },
    {
      "id": "110105",
      "name": "朝阳区",
      "parentid": "110100",
      "shortname": "朝阳",
      "leveltype": "3",
      "citycode": "010",
      "zipcode": "100020",
      "lng": "116.48548",
      "lat": "39.9484",
      "pinyin": "Chaoyang",
      "status": "1"
    },
    {
      "id": "110106",
      "name": "丰台区",
      "parentid": "110100",
      "shortname": "丰台",
      "leveltype": "3",
      "citycode": "010",
      "zipcode": "100071",
      "lng": "116.28625",
      "lat": "39.8585",
      "pinyin": "Fengtai",
      "status": "1"
    },
    {
      "id": "110107",
      "name": "石景山区",
      "parentid": "110100",
      "shortname": "石景山",
      "leveltype": "3",
      "citycode": "010",
      "zipcode": "100043",
      "lng": "116.2229",
      "lat": "39.90564",
      "pinyin": "Shijingshan",
      "status": "1"
    },
    {
      "id": "110108",
      "name": "海淀区",
      "parentid": "110100",
      "shortname": "海淀",
      "leveltype": "3",
      "citycode": "010",
      "zipcode": "100089",
      "lng": "116.29812",
      "lat": "39.95931",
      "pinyin": "Haidian",
      "status": "1"
    },
    {
      "id": "110109",
      "name": "门头沟区",
      "parentid": "110100",
      "shortname": "门头沟",
      "leveltype": "3",
      "citycode": "010",
      "zipcode": "102300",
      "lng": "116.10137",
      "lat": "39.94043",
      "pinyin": "Mentougou",
      "status": "1"
    },
    {
      "id": "110111",
      "name": "房山区",
      "parentid": "110100",
      "shortname": "房山",
      "leveltype": "3",
      "citycode": "010",
      "zipcode": "102488",
      "lng": "116.14257",
      "lat": "39.74786",
      "pinyin": "Fangshan",
      "status": "1"
    },
    {
      "id": "110112",
      "name": "通州区",
      "parentid": "110100",
      "shortname": "通州",
      "leveltype": "3",
      "citycode": "010",
      "zipcode": "101149",
      "lng": "116.65716",
      "lat": "39.90966",
      "pinyin": "Tongzhou",
      "status": "1"
    },
    {
      "id": "110113",
      "name": "顺义区",
      "parentid": "110100",
      "shortname": "顺义",
      "leveltype": "3",
      "citycode": "010",
      "zipcode": "101300",
      "lng": "116.65417",
      "lat": "40.1302",
      "pinyin": "Shunyi",
      "status": "1"
    },
    {
      "id": "110114",
      "name": "昌平区",
      "parentid": "110100",
      "shortname": "昌平",
      "leveltype": "3",
      "citycode": "010",
      "zipcode": "102200",
      "lng": "116.2312",
      "lat": "40.22072",
      "pinyin": "Changping",
      "status": "1"
    },
    {
      "id": "110115",
      "name": "大兴区",
      "parentid": "110100",
      "shortname": "大兴",
      "leveltype": "3",
      "citycode": "010",
      "zipcode": "102600",
      "lng": "116.34149",
      "lat": "39.72668",
      "pinyin": "Daxing",
      "status": "1"
    },
    {
      "id": "110116",
      "name": "怀柔区",
      "parentid": "110100",
      "shortname": "怀柔",
      "leveltype": "3",
      "citycode": "010",
      "zipcode": "101400",
      "lng": "116.63168",
      "lat": "40.31602",
      "pinyin": "Huairou",
      "status": "1"
    },
    {
      "id": "110117",
      "name": "平谷区",
      "parentid": "110100",
      "shortname": "平谷",
      "leveltype": "3",
      "citycode": "010",
      "zipcode": "101200",
      "lng": "117.12133",
      "lat": "40.14056",
      "pinyin": "Pinggu",
      "status": "1"
    },
    {
      "id": "110228",
      "name": "密云县",
      "parentid": "110100",
      "shortname": "密云",
      "leveltype": "3",
      "citycode": "010",
      "zipcode": "101500",
      "lng": "116.84295",
      "lat": "40.37618",
      "pinyin": "Miyun",
      "status": "1"
    },
    {
      "id": "110229",
      "name": "延庆县",
      "parentid": "110100",
      "shortname": "延庆",
      "leveltype": "3",
      "citycode": "010",
      "zipcode": "102100",
      "lng": "115.97494",
      "lat": "40.45672",
      "pinyin": "Yanqing",
      "status": "1"
    },
    {
      "id": "120000",
      "name": "天津",
      "parentid": "100000",
      "shortname": "天津",
      "leveltype": "1",
      "citycode": "",
      "zipcode": "",
      "lng": "117.190182",
      "lat": "39.125596",
      "pinyin": "Tianjin",
      "status": "1"
    },
    {
      "id": "120100",
      "name": "天津市",
      "parentid": "120000",
      "shortname": "天津",
      "leveltype": "2",
      "citycode": "022",
      "zipcode": "300000",
      "lng": "117.190182",
      "lat": "39.125596",
      "pinyin": "Tianjin",
      "status": "1"
    },
    {
      "id": "120101",
      "name": "和平区",
      "parentid": "120100",
      "shortname": "和平",
      "leveltype": "3",
      "citycode": "022",
      "zipcode": "300041",
      "lng": "117.21456",
      "lat": "39.11718",
      "pinyin": "Heping",
      "status": "1"
    },
    {
      "id": "120102",
      "name": "河东区",
      "parentid": "120100",
      "shortname": "河东",
      "leveltype": "3",
      "citycode": "022",
      "zipcode": "300171",
      "lng": "117.22562",
      "lat": "39.12318",
      "pinyin": "Hedong",
      "status": "1"
    },
    {
      "id": "120103",
      "name": "河西区",
      "parentid": "120100",
      "shortname": "河西",
      "leveltype": "3",
      "citycode": "022",
      "zipcode": "300202",
      "lng": "117.22327",
      "lat": "39.10959",
      "pinyin": "Hexi",
      "status": "1"
    },
    {
      "id": "120104",
      "name": "南开区",
      "parentid": "120100",
      "shortname": "南开",
      "leveltype": "3",
      "citycode": "022",
      "zipcode": "300110",
      "lng": "117.15074",
      "lat": "39.13821",
      "pinyin": "Nankai",
      "status": "1"
    },
    {
      "id": "120105",
      "name": "河北区",
      "parentid": "120100",
      "shortname": "河北",
      "leveltype": "3",
      "citycode": "022",
      "zipcode": "300143",
      "lng": "117.19697",
      "lat": "39.14816",
      "pinyin": "Hebei",
      "status": "1"
    },
    {
      "id": "120106",
      "name": "红桥区",
      "parentid": "120100",
      "shortname": "红桥",
      "leveltype": "3",
      "citycode": "022",
      "zipcode": "300131",
      "lng": "117.15145",
      "lat": "39.16715",
      "pinyin": "Hongqiao",
      "status": "1"
    },
    {
      "id": "120110",
      "name": "东丽区",
      "parentid": "120100",
      "shortname": "东丽",
      "leveltype": "3",
      "citycode": "022",
      "zipcode": "300300",
      "lng": "117.31436",
      "lat": "39.0863",
      "pinyin": "Dongli",
      "status": "1"
    },
    {
      "id": "120111",
      "name": "西青区",
      "parentid": "120100",
      "shortname": "西青",
      "leveltype": "3",
      "citycode": "022",
      "zipcode": "300380",
      "lng": "117.00927",
      "lat": "39.14123",
      "pinyin": "Xiqing",
      "status": "1"
    },
    {
      "id": "120112",
      "name": "津南区",
      "parentid": "120100",
      "shortname": "津南",
      "leveltype": "3",
      "citycode": "022",
      "zipcode": "300350",
      "lng": "117.38537",
      "lat": "38.99139",
      "pinyin": "Jinnan",
      "status": "1"
    },
    {
      "id": "120113",
      "name": "北辰区",
      "parentid": "120100",
      "shortname": "北辰",
      "leveltype": "3",
      "citycode": "022",
      "zipcode": "300400",
      "lng": "117.13217",
      "lat": "39.22131",
      "pinyin": "Beichen",
      "status": "1"
    },
    {
      "id": "120114",
      "name": "武清区",
      "parentid": "120100",
      "shortname": "武清",
      "leveltype": "3",
      "citycode": "022",
      "zipcode": "301700",
      "lng": "117.04443",
      "lat": "39.38415",
      "pinyin": "Wuqing",
      "status": "1"
    },
    {
      "id": "120115",
      "name": "宝坻区",
      "parentid": "120100",
      "shortname": "宝坻",
      "leveltype": "3",
      "citycode": "022",
      "zipcode": "301800",
      "lng": "117.3103",
      "lat": "39.71761",
      "pinyin": "Baodi",
      "status": "1"
    },
    {
      "id": "120116",
      "name": "滨海新区",
      "parentid": "120100",
      "shortname": "滨海新区",
      "leveltype": "3",
      "citycode": "022",
      "zipcode": "300451",
      "lng": "117.70162",
      "lat": "39.02668",
      "pinyin": "Binhaixinqu",
      "status": "1"
    },
    {
      "id": "120221",
      "name": "宁河县",
      "parentid": "120100",
      "shortname": "宁河",
      "leveltype": "3",
      "citycode": "022",
      "zipcode": "301500",
      "lng": "117.8255",
      "lat": "39.33048",
      "pinyin": "Ninghe",
      "status": "1"
    },
    {
      "id": "120223",
      "name": "静海县",
      "parentid": "120100",
      "shortname": "静海",
      "leveltype": "3",
      "citycode": "022",
      "zipcode": "301600",
      "lng": "116.97436",
      "lat": "38.94582",
      "pinyin": "Jinghai",
      "status": "1"
    },
    {
      "id": "120225",
      "name": "蓟县",
      "parentid": "120100",
      "shortname": "蓟县",
      "leveltype": "3",
      "citycode": "022",
      "zipcode": "301900",
      "lng": "117.40799",
      "lat": "40.04567",
      "pinyin": "Jixian",
      "status": "1"
    },
    {
      "id": "130000",
      "name": "河北省",
      "parentid": "100000",
      "shortname": "河北",
      "leveltype": "1",
      "citycode": "",
      "zipcode": "",
      "lng": "114.502461",
      "lat": "38.045474",
      "pinyin": "Hebei",
      "status": "1"
    },
    {
      "id": "130100",
      "name": "石家庄市",
      "parentid": "130000",
      "shortname": "石家庄",
      "leveltype": "2",
      "citycode": "0311",
      "zipcode": "050011",
      "lng": "114.502461",
      "lat": "38.045474",
      "pinyin": "Shijiazhuang",
      "status": "1"
    },
    {
      "id": "130102",
      "name": "长安区",
      "parentid": "130100",
      "shortname": "长安",
      "leveltype": "3",
      "citycode": "0311",
      "zipcode": "050011",
      "lng": "114.53906",
      "lat": "38.03665",
      "pinyin": "Chang\\'an",
      "status": "1"
    },
    {
      "id": "130104",
      "name": "桥西区",
      "parentid": "130100",
      "shortname": "桥西",
      "leveltype": "3",
      "citycode": "0311",
      "zipcode": "050091",
      "lng": "114.46977",
      "lat": "38.03221",
      "pinyin": "Qiaoxi",
      "status": "1"
    },
    {
      "id": "130105",
      "name": "新华区",
      "parentid": "130100",
      "shortname": "新华",
      "leveltype": "3",
      "citycode": "0311",
      "zipcode": "050051",
      "lng": "114.46326",
      "lat": "38.05088",
      "pinyin": "Xinhua",
      "status": "1"
    },
    {
      "id": "130107",
      "name": "井陉矿区",
      "parentid": "130100",
      "shortname": "井陉矿区",
      "leveltype": "3",
      "citycode": "0311",
      "zipcode": "050100",
      "lng": "114.06518",
      "lat": "38.06705",
      "pinyin": "Jingxingkuangqu",
      "status": "1"
    },
    {
      "id": "130108",
      "name": "裕华区",
      "parentid": "130100",
      "shortname": "裕华",
      "leveltype": "3",
      "citycode": "0311",
      "zipcode": "050031",
      "lng": "114.53115",
      "lat": "38.00604",
      "pinyin": "Yuhua",
      "status": "1"
    },
    {
      "id": "130109",
      "name": "藁城区",
      "parentid": "130100",
      "shortname": "藁城",
      "leveltype": "3",
      "citycode": "0311",
      "zipcode": "052160",
      "lng": "114.84671",
      "lat": "38.02162",
      "pinyin": "Gaocheng",
      "status": "1"
    },
    {
      "id": "130110",
      "name": "鹿泉区",
      "parentid": "130100",
      "shortname": "鹿泉",
      "leveltype": "3",
      "citycode": "0311",
      "zipcode": "050200",
      "lng": "114.31347",
      "lat": "38.08782",
      "pinyin": "Luquan",
      "status": "1"
    },
    {
      "id": "130111",
      "name": "栾城区",
      "parentid": "130100",
      "shortname": "栾城",
      "leveltype": "3",
      "citycode": "0311",
      "zipcode": "051430",
      "lng": "114.64834",
      "lat": "37.90022",
      "pinyin": "Luancheng",
      "status": "1"
    },
    {
      "id": "130121",
      "name": "井陉县",
      "parentid": "130100",
      "shortname": "井陉",
      "leveltype": "3",
      "citycode": "0311",
      "zipcode": "050300",
      "lng": "114.14257",
      "lat": "38.03688",
      "pinyin": "Jingxing",
      "status": "1"
    },
    {
      "id": "130123",
      "name": "正定县",
      "parentid": "130100",
      "shortname": "正定",
      "leveltype": "3",
      "citycode": "0311",
      "zipcode": "050800",
      "lng": "114.57296",
      "lat": "38.14445",
      "pinyin": "Zhengding",
      "status": "1"
    },
    {
      "id": "130125",
      "name": "行唐县",
      "parentid": "130100",
      "shortname": "行唐",
      "leveltype": "3",
      "citycode": "0311",
      "zipcode": "050600",
      "lng": "114.55316",
      "lat": "38.43654",
      "pinyin": "Xingtang",
      "status": "1"
    },
    {
      "id": "130126",
      "name": "灵寿县",
      "parentid": "130100",
      "shortname": "灵寿",
      "leveltype": "3",
      "citycode": "0311",
      "zipcode": "050500",
      "lng": "114.38259",
      "lat": "38.30845",
      "pinyin": "Lingshou",
      "status": "1"
    },
    {
      "id": "130127",
      "name": "高邑县",
      "parentid": "130100",
      "shortname": "高邑",
      "leveltype": "3",
      "citycode": "0311",
      "zipcode": "051330",
      "lng": "114.61142",
      "lat": "37.61556",
      "pinyin": "Gaoyi",
      "status": "1"
    },
    {
      "id": "130128",
      "name": "深泽县",
      "parentid": "130100",
      "shortname": "深泽",
      "leveltype": "3",
      "citycode": "0311",
      "zipcode": "052560",
      "lng": "115.20358",
      "lat": "38.18353",
      "pinyin": "Shenze",
      "status": "1"
    },
    {
      "id": "130129",
      "name": "赞皇县",
      "parentid": "130100",
      "shortname": "赞皇",
      "leveltype": "3",
      "citycode": "0311",
      "zipcode": "051230",
      "lng": "114.38775",
      "lat": "37.66135",
      "pinyin": "Zanhuang",
      "status": "1"
    },
    {
      "id": "130130",
      "name": "无极县",
      "parentid": "130100",
      "shortname": "无极",
      "leveltype": "3",
      "citycode": "0311",
      "zipcode": "052460",
      "lng": "114.97509",
      "lat": "38.17653",
      "pinyin": "Wuji",
      "status": "1"
    },
    {
      "id": "130131",
      "name": "平山县",
      "parentid": "130100",
      "shortname": "平山",
      "leveltype": "3",
      "citycode": "0311",
      "zipcode": "050400",
      "lng": "114.186",
      "lat": "38.25994",
      "pinyin": "Pingshan",
      "status": "1"
    },
    {
      "id": "130132",
      "name": "元氏县",
      "parentid": "130100",
      "shortname": "元氏",
      "leveltype": "3",
      "citycode": "0311",
      "zipcode": "051130",
      "lng": "114.52539",
      "lat": "37.76668",
      "pinyin": "Yuanshi",
      "status": "1"
    },
    {
      "id": "130133",
      "name": "赵县",
      "parentid": "130100",
      "shortname": "赵县",
      "leveltype": "3",
      "citycode": "0311",
      "zipcode": "051530",
      "lng": "114.77612",
      "lat": "37.75628",
      "pinyin": "Zhaoxian",
      "status": "1"
    },
    {
      "id": "130181",
      "name": "辛集市",
      "parentid": "130100",
      "shortname": "辛集",
      "leveltype": "3",
      "citycode": "0311",
      "zipcode": "052360",
      "lng": "115.20626",
      "lat": "37.94079",
      "pinyin": "Xinji",
      "status": "1"
    },
    {
      "id": "130183",
      "name": "晋州市",
      "parentid": "130100",
      "shortname": "晋州",
      "leveltype": "3",
      "citycode": "0311",
      "zipcode": "052260",
      "lng": "115.04348",
      "lat": "38.03135",
      "pinyin": "Jinzhou",
      "status": "1"
    },
    {
      "id": "130184",
      "name": "新乐市",
      "parentid": "130100",
      "shortname": "新乐",
      "leveltype": "3",
      "citycode": "0311",
      "zipcode": "050700",
      "lng": "114.68985",
      "lat": "38.34417",
      "pinyin": "Xinle",
      "status": "1"
    },
    {
      "id": "130200",
      "name": "唐山市",
      "parentid": "130000",
      "shortname": "唐山",
      "leveltype": "2",
      "citycode": "0315",
      "zipcode": "063000",
      "lng": "118.175393",
      "lat": "39.635113",
      "pinyin": "Tangshan",
      "status": "1"
    },
    {
      "id": "130202",
      "name": "路南区",
      "parentid": "130200",
      "shortname": "路南",
      "leveltype": "3",
      "citycode": "0315",
      "zipcode": "063000",
      "lng": "118.15431",
      "lat": "39.62505",
      "pinyin": "Lunan",
      "status": "1"
    },
    {
      "id": "130203",
      "name": "路北区",
      "parentid": "130200",
      "shortname": "路北",
      "leveltype": "3",
      "citycode": "0315",
      "zipcode": "063000",
      "lng": "118.20079",
      "lat": "39.62436",
      "pinyin": "Lubei",
      "status": "1"
    },
    {
      "id": "130204",
      "name": "古冶区",
      "parentid": "130200",
      "shortname": "古冶",
      "leveltype": "3",
      "citycode": "0315",
      "zipcode": "063100",
      "lng": "118.45803",
      "lat": "39.71993",
      "pinyin": "Guye",
      "status": "1"
    },
    {
      "id": "130205",
      "name": "开平区",
      "parentid": "130200",
      "shortname": "开平",
      "leveltype": "3",
      "citycode": "0315",
      "zipcode": "063021",
      "lng": "118.26171",
      "lat": "39.67128",
      "pinyin": "Kaiping",
      "status": "1"
    },
    {
      "id": "130207",
      "name": "丰南区",
      "parentid": "130200",
      "shortname": "丰南",
      "leveltype": "3",
      "citycode": "0315",
      "zipcode": "063300",
      "lng": "118.11282",
      "lat": "39.56483",
      "pinyin": "Fengnan",
      "status": "1"
    },
    {
      "id": "130208",
      "name": "丰润区",
      "parentid": "130200",
      "shortname": "丰润",
      "leveltype": "3",
      "citycode": "0315",
      "zipcode": "064000",
      "lng": "118.12976",
      "lat": "39.8244",
      "pinyin": "Fengrun",
      "status": "1"
    },
    {
      "id": "130209",
      "name": "曹妃甸区",
      "parentid": "130200",
      "shortname": "曹妃甸",
      "leveltype": "3",
      "citycode": "0315",
      "zipcode": "063200",
      "lng": "118.460379",
      "lat": "39.273070",
      "pinyin": "Caofeidian",
      "status": "1"
    },
    {
      "id": "130223",
      "name": "滦县",
      "parentid": "130200",
      "shortname": "滦县",
      "leveltype": "3",
      "citycode": "0315",
      "zipcode": "063700",
      "lng": "118.70346",
      "lat": "39.74056",
      "pinyin": "Luanxian",
      "status": "1"
    },
    {
      "id": "130224",
      "name": "滦南县",
      "parentid": "130200",
      "shortname": "滦南",
      "leveltype": "3",
      "citycode": "0315",
      "zipcode": "063500",
      "lng": "118.6741",
      "lat": "39.5039",
      "pinyin": "Luannan",
      "status": "1"
    },
    {
      "id": "130225",
      "name": "乐亭县",
      "parentid": "130200",
      "shortname": "乐亭",
      "leveltype": "3",
      "citycode": "0315",
      "zipcode": "063600",
      "lng": "118.9125",
      "lat": "39.42561",
      "pinyin": "Laoting",
      "status": "1"
    },
    {
      "id": "130227",
      "name": "迁西县",
      "parentid": "130200",
      "shortname": "迁西",
      "leveltype": "3",
      "citycode": "0315",
      "zipcode": "064300",
      "lng": "118.31616",
      "lat": "40.14587",
      "pinyin": "Qianxi",
      "status": "1"
    },
    {
      "id": "130229",
      "name": "玉田县",
      "parentid": "130200",
      "shortname": "玉田",
      "leveltype": "3",
      "citycode": "0315",
      "zipcode": "064100",
      "lng": "117.7388",
      "lat": "39.90049",
      "pinyin": "Yutian",
      "status": "1"
    },
    {
      "id": "130281",
      "name": "遵化市",
      "parentid": "130200",
      "shortname": "遵化",
      "leveltype": "3",
      "citycode": "0315",
      "zipcode": "064200",
      "lng": "117.96444",
      "lat": "40.18741",
      "pinyin": "Zunhua",
      "status": "1"
    },
    {
      "id": "130283",
      "name": "迁安市",
      "parentid": "130200",
      "shortname": "迁安",
      "leveltype": "3",
      "citycode": "0315",
      "zipcode": "064400",
      "lng": "118.70068",
      "lat": "39.99833",
      "pinyin": "Qian\\'an",
      "status": "1"
    },
    {
      "id": "130300",
      "name": "秦皇岛市",
      "parentid": "130000",
      "shortname": "秦皇岛",
      "leveltype": "2",
      "citycode": "0335",
      "zipcode": "066000",
      "lng": "119.586579",
      "lat": "39.942531",
      "pinyin": "Qinhuangdao",
      "status": "1"
    },
    {
      "id": "130302",
      "name": "海港区",
      "parentid": "130300",
      "shortname": "海港",
      "leveltype": "3",
      "citycode": "0335",
      "zipcode": "066000",
      "lng": "119.61046",
      "lat": "39.9345",
      "pinyin": "Haigang",
      "status": "1"
    },
    {
      "id": "130303",
      "name": "山海关区",
      "parentid": "130300",
      "shortname": "山海关",
      "leveltype": "3",
      "citycode": "0335",
      "zipcode": "066200",
      "lng": "119.77563",
      "lat": "39.97869",
      "pinyin": "Shanhaiguan",
      "status": "1"
    },
    {
      "id": "130304",
      "name": "北戴河区",
      "parentid": "130300",
      "shortname": "北戴河",
      "leveltype": "3",
      "citycode": "0335",
      "zipcode": "066100",
      "lng": "119.48388",
      "lat": "39.83408",
      "pinyin": "Beidaihe",
      "status": "1"
    },
    {
      "id": "130321",
      "name": "青龙满族自治县",
      "parentid": "130300",
      "shortname": "青龙",
      "leveltype": "3",
      "citycode": "0335",
      "zipcode": "066500",
      "lng": "118.95242",
      "lat": "40.40743",
      "pinyin": "Qinglong",
      "status": "1"
    },
    {
      "id": "130322",
      "name": "昌黎县",
      "parentid": "130300",
      "shortname": "昌黎",
      "leveltype": "3",
      "citycode": "0335",
      "zipcode": "066600",
      "lng": "119.16595",
      "lat": "39.70884",
      "pinyin": "Changli",
      "status": "1"
    },
    {
      "id": "130323",
      "name": "抚宁县",
      "parentid": "130300",
      "shortname": "抚宁",
      "leveltype": "3",
      "citycode": "0335",
      "zipcode": "066300",
      "lng": "119.24487",
      "lat": "39.87538",
      "pinyin": "Funing",
      "status": "1"
    },
    {
      "id": "130324",
      "name": "卢龙县",
      "parentid": "130300",
      "shortname": "卢龙",
      "leveltype": "3",
      "citycode": "0335",
      "zipcode": "066400",
      "lng": "118.89288",
      "lat": "39.89176",
      "pinyin": "Lulong",
      "status": "1"
    },
    {
      "id": "130400",
      "name": "邯郸市",
      "parentid": "130000",
      "shortname": "邯郸",
      "leveltype": "2",
      "citycode": "0310",
      "zipcode": "056002",
      "lng": "114.490686",
      "lat": "36.612273",
      "pinyin": "Handan",
      "status": "1"
    },
    {
      "id": "130402",
      "name": "邯山区",
      "parentid": "130400",
      "shortname": "邯山",
      "leveltype": "3",
      "citycode": "0310",
      "zipcode": "056001",
      "lng": "114.48375",
      "lat": "36.60006",
      "pinyin": "Hanshan",
      "status": "1"
    },
    {
      "id": "130403",
      "name": "丛台区",
      "parentid": "130400",
      "shortname": "丛台",
      "leveltype": "3",
      "citycode": "0310",
      "zipcode": "056002",
      "lng": "114.49343",
      "lat": "36.61847",
      "pinyin": "Congtai",
      "status": "1"
    },
    {
      "id": "130404",
      "name": "复兴区",
      "parentid": "130400",
      "shortname": "复兴",
      "leveltype": "3",
      "citycode": "0310",
      "zipcode": "056003",
      "lng": "114.45928",
      "lat": "36.61134",
      "pinyin": "Fuxing",
      "status": "1"
    },
    {
      "id": "130406",
      "name": "峰峰矿区",
      "parentid": "130400",
      "shortname": "峰峰矿区",
      "leveltype": "3",
      "citycode": "0310",
      "zipcode": "056200",
      "lng": "114.21148",
      "lat": "36.41937",
      "pinyin": "Fengfengkuangqu",
      "status": "1"
    },
    {
      "id": "130421",
      "name": "邯郸县",
      "parentid": "130400",
      "shortname": "邯郸",
      "leveltype": "3",
      "citycode": "0310",
      "zipcode": "056101",
      "lng": "114.53103",
      "lat": "36.59385",
      "pinyin": "Handan",
      "status": "1"
    },
    {
      "id": "130423",
      "name": "临漳县",
      "parentid": "130400",
      "shortname": "临漳",
      "leveltype": "3",
      "citycode": "0310",
      "zipcode": "056600",
      "lng": "114.6195",
      "lat": "36.33461",
      "pinyin": "Linzhang",
      "status": "1"
    },
    {
      "id": "130424",
      "name": "成安县",
      "parentid": "130400",
      "shortname": "成安",
      "leveltype": "3",
      "citycode": "0310",
      "zipcode": "056700",
      "lng": "114.66995",
      "lat": "36.44411",
      "pinyin": "Cheng\\'an",
      "status": "1"
    },
    {
      "id": "130425",
      "name": "大名县",
      "parentid": "130400",
      "shortname": "大名",
      "leveltype": "3",
      "citycode": "0310",
      "zipcode": "056900",
      "lng": "115.15362",
      "lat": "36.27994",
      "pinyin": "Daming",
      "status": "1"
    },
    {
      "id": "130426",
      "name": "涉县",
      "parentid": "130400",
      "shortname": "涉县",
      "leveltype": "3",
      "citycode": "0310",
      "zipcode": "056400",
      "lng": "113.69183",
      "lat": "36.58072",
      "pinyin": "Shexian",
      "status": "1"
    },
    {
      "id": "130427",
      "name": "磁县",
      "parentid": "130400",
      "shortname": "磁县",
      "leveltype": "3",
      "citycode": "0310",
      "zipcode": "056500",
      "lng": "114.37387",
      "lat": "36.37392",
      "pinyin": "Cixian",
      "status": "1"
    },
    {
      "id": "130428",
      "name": "肥乡县",
      "parentid": "130400",
      "shortname": "肥乡",
      "leveltype": "3",
      "citycode": "0310",
      "zipcode": "057550",
      "lng": "114.79998",
      "lat": "36.54807",
      "pinyin": "Feixiang",
      "status": "1"
    },
    {
      "id": "130429",
      "name": "永年县",
      "parentid": "130400",
      "shortname": "永年",
      "leveltype": "3",
      "citycode": "0310",
      "zipcode": "057150",
      "lng": "114.48925",
      "lat": "36.78356",
      "pinyin": "Yongnian",
      "status": "1"
    },
    {
      "id": "130430",
      "name": "邱县",
      "parentid": "130400",
      "shortname": "邱县",
      "leveltype": "3",
      "citycode": "0310",
      "zipcode": "057450",
      "lng": "115.17407",
      "lat": "36.82082",
      "pinyin": "Qiuxian",
      "status": "1"
    },
    {
      "id": "130431",
      "name": "鸡泽县",
      "parentid": "130400",
      "shortname": "鸡泽",
      "leveltype": "3",
      "citycode": "0310",
      "zipcode": "057350",
      "lng": "114.8742",
      "lat": "36.92374",
      "pinyin": "Jize",
      "status": "1"
    },
    {
      "id": "130432",
      "name": "广平县",
      "parentid": "130400",
      "shortname": "广平",
      "leveltype": "3",
      "citycode": "0310",
      "zipcode": "057650",
      "lng": "114.94653",
      "lat": "36.48046",
      "pinyin": "Guangping",
      "status": "1"
    },
    {
      "id": "130433",
      "name": "馆陶县",
      "parentid": "130400",
      "shortname": "馆陶",
      "leveltype": "3",
      "citycode": "0310",
      "zipcode": "057750",
      "lng": "115.29913",
      "lat": "36.53719",
      "pinyin": "Guantao",
      "status": "1"
    },
    {
      "id": "130434",
      "name": "魏县",
      "parentid": "130400",
      "shortname": "魏县",
      "leveltype": "3",
      "citycode": "0310",
      "zipcode": "056800",
      "lng": "114.93518",
      "lat": "36.36171",
      "pinyin": "Weixian",
      "status": "1"
    },
    {
      "id": "130435",
      "name": "曲周县",
      "parentid": "130400",
      "shortname": "曲周",
      "leveltype": "3",
      "citycode": "0310",
      "zipcode": "057250",
      "lng": "114.95196",
      "lat": "36.77671",
      "pinyin": "Quzhou",
      "status": "1"
    },
    {
      "id": "130481",
      "name": "武安市",
      "parentid": "130400",
      "shortname": "武安",
      "leveltype": "3",
      "citycode": "0310",
      "zipcode": "056300",
      "lng": "114.20153",
      "lat": "36.69281",
      "pinyin": "Wu\\'an",
      "status": "1"
    },
    {
      "id": "130500",
      "name": "邢台市",
      "parentid": "130000",
      "shortname": "邢台",
      "leveltype": "2",
      "citycode": "0319",
      "zipcode": "054001",
      "lng": "114.508851",
      "lat": "37.0682",
      "pinyin": "Xingtai",
      "status": "1"
    },
    {
      "id": "130502",
      "name": "桥东区",
      "parentid": "130500",
      "shortname": "桥东",
      "leveltype": "3",
      "citycode": "0319",
      "zipcode": "054001",
      "lng": "114.50725",
      "lat": "37.06801",
      "pinyin": "Qiaodong",
      "status": "1"
    },
    {
      "id": "130503",
      "name": "桥西区",
      "parentid": "130500",
      "shortname": "桥西",
      "leveltype": "3",
      "citycode": "0319",
      "zipcode": "054000",
      "lng": "114.46803",
      "lat": "37.05984",
      "pinyin": "Qiaoxi",
      "status": "1"
    },
    {
      "id": "130521",
      "name": "邢台县",
      "parentid": "130500",
      "shortname": "邢台",
      "leveltype": "3",
      "citycode": "0319",
      "zipcode": "054001",
      "lng": "114.56575",
      "lat": "37.0456",
      "pinyin": "Xingtai",
      "status": "1"
    },
    {
      "id": "130522",
      "name": "临城县",
      "parentid": "130500",
      "shortname": "临城",
      "leveltype": "3",
      "citycode": "0319",
      "zipcode": "054300",
      "lng": "114.50387",
      "lat": "37.43977",
      "pinyin": "Lincheng",
      "status": "1"
    },
    {
      "id": "130523",
      "name": "内丘县",
      "parentid": "130500",
      "shortname": "内丘",
      "leveltype": "3",
      "citycode": "0319",
      "zipcode": "054200",
      "lng": "114.51212",
      "lat": "37.28671",
      "pinyin": "Neiqiu",
      "status": "1"
    },
    {
      "id": "130524",
      "name": "柏乡县",
      "parentid": "130500",
      "shortname": "柏乡",
      "leveltype": "3",
      "citycode": "0319",
      "zipcode": "055450",
      "lng": "114.69332",
      "lat": "37.48242",
      "pinyin": "Baixiang",
      "status": "1"
    },
    {
      "id": "130525",
      "name": "隆尧县",
      "parentid": "130500",
      "shortname": "隆尧",
      "leveltype": "3",
      "citycode": "0319",
      "zipcode": "055350",
      "lng": "114.77615",
      "lat": "37.35351",
      "pinyin": "Longyao",
      "status": "1"
    },
    {
      "id": "130526",
      "name": "任县",
      "parentid": "130500",
      "shortname": "任县",
      "leveltype": "3",
      "citycode": "0319",
      "zipcode": "055150",
      "lng": "114.6842",
      "lat": "37.12575",
      "pinyin": "Renxian",
      "status": "1"
    },
    {
      "id": "130527",
      "name": "南和县",
      "parentid": "130500",
      "shortname": "南和",
      "leveltype": "3",
      "citycode": "0319",
      "zipcode": "054400",
      "lng": "114.68371",
      "lat": "37.00488",
      "pinyin": "Nanhe",
      "status": "1"
    },
    {
      "id": "130528",
      "name": "宁晋县",
      "parentid": "130500",
      "shortname": "宁晋",
      "leveltype": "3",
      "citycode": "0319",
      "zipcode": "055550",
      "lng": "114.92117",
      "lat": "37.61696",
      "pinyin": "Ningjin",
      "status": "1"
    },
    {
      "id": "130529",
      "name": "巨鹿县",
      "parentid": "130500",
      "shortname": "巨鹿",
      "leveltype": "3",
      "citycode": "0319",
      "zipcode": "055250",
      "lng": "115.03524",
      "lat": "37.21801",
      "pinyin": "Julu",
      "status": "1"
    },
    {
      "id": "130530",
      "name": "新河县",
      "parentid": "130500",
      "shortname": "新河",
      "leveltype": "3",
      "citycode": "0319",
      "zipcode": "055650",
      "lng": "115.24987",
      "lat": "37.52718",
      "pinyin": "Xinhe",
      "status": "1"
    },
    {
      "id": "130531",
      "name": "广宗县",
      "parentid": "130500",
      "shortname": "广宗",
      "leveltype": "3",
      "citycode": "0319",
      "zipcode": "054600",
      "lng": "115.14254",
      "lat": "37.0746",
      "pinyin": "Guangzong",
      "status": "1"
    },
    {
      "id": "130532",
      "name": "平乡县",
      "parentid": "130500",
      "shortname": "平乡",
      "leveltype": "3",
      "citycode": "0319",
      "zipcode": "054500",
      "lng": "115.03002",
      "lat": "37.06317",
      "pinyin": "Pingxiang",
      "status": "1"
    },
    {
      "id": "130533",
      "name": "威县",
      "parentid": "130500",
      "shortname": "威县",
      "leveltype": "3",
      "citycode": "0319",
      "zipcode": "054700",
      "lng": "115.2637",
      "lat": "36.9768",
      "pinyin": "Weixian",
      "status": "1"
    },
    {
      "id": "130534",
      "name": "清河县",
      "parentid": "130500",
      "shortname": "清河",
      "leveltype": "3",
      "citycode": "0319",
      "zipcode": "054800",
      "lng": "115.66479",
      "lat": "37.07122",
      "pinyin": "Qinghe",
      "status": "1"
    },
    {
      "id": "130535",
      "name": "临西县",
      "parentid": "130500",
      "shortname": "临西",
      "leveltype": "3",
      "citycode": "0319",
      "zipcode": "054900",
      "lng": "115.50097",
      "lat": "36.87078",
      "pinyin": "Linxi",
      "status": "1"
    },
    {
      "id": "130581",
      "name": "南宫市",
      "parentid": "130500",
      "shortname": "南宫",
      "leveltype": "3",
      "citycode": "0319",
      "zipcode": "055750",
      "lng": "115.39068",
      "lat": "37.35799",
      "pinyin": "Nangong",
      "status": "1"
    },
    {
      "id": "130582",
      "name": "沙河市",
      "parentid": "130500",
      "shortname": "沙河",
      "leveltype": "3",
      "citycode": "0319",
      "zipcode": "054100",
      "lng": "114.4981",
      "lat": "36.8577",
      "pinyin": "Shahe",
      "status": "1"
    },
    {
      "id": "130600",
      "name": "保定市",
      "parentid": "130000",
      "shortname": "保定",
      "leveltype": "2",
      "citycode": "0312",
      "zipcode": "071052",
      "lng": "115.482331",
      "lat": "38.867657",
      "pinyin": "Baoding",
      "status": "1"
    },
    {
      "id": "130602",
      "name": "新市区",
      "parentid": "130600",
      "shortname": "新市",
      "leveltype": "3",
      "citycode": "0312",
      "zipcode": "071051",
      "lng": "115.4587",
      "lat": "38.87751",
      "pinyin": "Xinshi",
      "status": "1"
    },
    {
      "id": "130603",
      "name": "北市区",
      "parentid": "130600",
      "shortname": "北市",
      "leveltype": "3",
      "citycode": "0312",
      "zipcode": "071000",
      "lng": "115.49715",
      "lat": "38.88322",
      "pinyin": "Beishi",
      "status": "1"
    },
    {
      "id": "130604",
      "name": "南市区",
      "parentid": "130600",
      "shortname": "南市",
      "leveltype": "3",
      "citycode": "0312",
      "zipcode": "071001",
      "lng": "115.52859",
      "lat": "38.85455",
      "pinyin": "Nanshi",
      "status": "1"
    },
    {
      "id": "130621",
      "name": "满城县",
      "parentid": "130600",
      "shortname": "满城",
      "leveltype": "3",
      "citycode": "0312",
      "zipcode": "072150",
      "lng": "115.32296",
      "lat": "38.94972",
      "pinyin": "Mancheng",
      "status": "1"
    },
    {
      "id": "130622",
      "name": "清苑县",
      "parentid": "130600",
      "shortname": "清苑",
      "leveltype": "3",
      "citycode": "0312",
      "zipcode": "071100",
      "lng": "115.49267",
      "lat": "38.76709",
      "pinyin": "Qingyuan",
      "status": "1"
    },
    {
      "id": "130623",
      "name": "涞水县",
      "parentid": "130600",
      "shortname": "涞水",
      "leveltype": "3",
      "citycode": "0312",
      "zipcode": "074100",
      "lng": "115.71517",
      "lat": "39.39404",
      "pinyin": "Laishui",
      "status": "1"
    },
    {
      "id": "130624",
      "name": "阜平县",
      "parentid": "130600",
      "shortname": "阜平",
      "leveltype": "3",
      "citycode": "0312",
      "zipcode": "073200",
      "lng": "114.19683",
      "lat": "38.84763",
      "pinyin": "Fuping",
      "status": "1"
    },
    {
      "id": "130625",
      "name": "徐水县",
      "parentid": "130600",
      "shortname": "徐水",
      "leveltype": "3",
      "citycode": "0312",
      "zipcode": "072550",
      "lng": "115.65829",
      "lat": "39.02099",
      "pinyin": "Xushui",
      "status": "1"
    },
    {
      "id": "130626",
      "name": "定兴县",
      "parentid": "130600",
      "shortname": "定兴",
      "leveltype": "3",
      "citycode": "0312",
      "zipcode": "072650",
      "lng": "115.80786",
      "lat": "39.26312",
      "pinyin": "Dingxing",
      "status": "1"
    },
    {
      "id": "130627",
      "name": "唐县",
      "parentid": "130600",
      "shortname": "唐县",
      "leveltype": "3",
      "citycode": "0312",
      "zipcode": "072350",
      "lng": "114.98516",
      "lat": "38.74513",
      "pinyin": "Tangxian",
      "status": "1"
    },
    {
      "id": "130628",
      "name": "高阳县",
      "parentid": "130600",
      "shortname": "高阳",
      "leveltype": "3",
      "citycode": "0312",
      "zipcode": "071500",
      "lng": "115.7788",
      "lat": "38.70003",
      "pinyin": "Gaoyang",
      "status": "1"
    },
    {
      "id": "130629",
      "name": "容城县",
      "parentid": "130600",
      "shortname": "容城",
      "leveltype": "3",
      "citycode": "0312",
      "zipcode": "071700",
      "lng": "115.87158",
      "lat": "39.0535",
      "pinyin": "Rongcheng",
      "status": "1"
    },
    {
      "id": "130630",
      "name": "涞源县",
      "parentid": "130600",
      "shortname": "涞源",
      "leveltype": "3",
      "citycode": "0312",
      "zipcode": "074300",
      "lng": "114.69128",
      "lat": "39.35388",
      "pinyin": "Laiyuan",
      "status": "1"
    },
    {
      "id": "130631",
      "name": "望都县",
      "parentid": "130600",
      "shortname": "望都",
      "leveltype": "3",
      "citycode": "0312",
      "zipcode": "072450",
      "lng": "115.1567",
      "lat": "38.70996",
      "pinyin": "Wangdu",
      "status": "1"
    },
    {
      "id": "130632",
      "name": "安新县",
      "parentid": "130600",
      "shortname": "安新",
      "leveltype": "3",
      "citycode": "0312",
      "zipcode": "071600",
      "lng": "115.93557",
      "lat": "38.93532",
      "pinyin": "Anxin",
      "status": "1"
    },
    {
      "id": "130633",
      "name": "易县",
      "parentid": "130600",
      "shortname": "易县",
      "leveltype": "3",
      "citycode": "0312",
      "zipcode": "074200",
      "lng": "115.4981",
      "lat": "39.34885",
      "pinyin": "Yixian",
      "status": "1"
    },
    {
      "id": "130634",
      "name": "曲阳县",
      "parentid": "130600",
      "shortname": "曲阳",
      "leveltype": "3",
      "citycode": "0312",
      "zipcode": "073100",
      "lng": "114.70123",
      "lat": "38.62154",
      "pinyin": "Quyang",
      "status": "1"
    },
    {
      "id": "130635",
      "name": "蠡县",
      "parentid": "130600",
      "shortname": "蠡县",
      "leveltype": "3",
      "citycode": "0312",
      "zipcode": "071400",
      "lng": "115.57717",
      "lat": "38.48974",
      "pinyin": "Lixian",
      "status": "1"
    },
    {
      "id": "130636",
      "name": "顺平县",
      "parentid": "130600",
      "shortname": "顺平",
      "leveltype": "3",
      "citycode": "0312",
      "zipcode": "072250",
      "lng": "115.1347",
      "lat": "38.83854",
      "pinyin": "Shunping",
      "status": "1"
    },
    {
      "id": "130637",
      "name": "博野县",
      "parentid": "130600",
      "shortname": "博野",
      "leveltype": "3",
      "citycode": "0312",
      "zipcode": "071300",
      "lng": "115.47033",
      "lat": "38.4564",
      "pinyin": "Boye",
      "status": "1"
    },
    {
      "id": "130638",
      "name": "雄县",
      "parentid": "130600",
      "shortname": "雄县",
      "leveltype": "3",
      "citycode": "0312",
      "zipcode": "071800",
      "lng": "116.10873",
      "lat": "38.99442",
      "pinyin": "Xiongxian",
      "status": "1"
    },
    {
      "id": "130681",
      "name": "涿州市",
      "parentid": "130600",
      "shortname": "涿州",
      "leveltype": "3",
      "citycode": "0312",
      "zipcode": "072750",
      "lng": "115.98062",
      "lat": "39.48622",
      "pinyin": "Zhuozhou",
      "status": "1"
    },
    {
      "id": "130682",
      "name": "定州市",
      "parentid": "130600",
      "shortname": "定州",
      "leveltype": "3",
      "citycode": "0312",
      "zipcode": "073000",
      "lng": "114.9902",
      "lat": "38.51623",
      "pinyin": "Dingzhou",
      "status": "1"
    },
    {
      "id": "130683",
      "name": "安国市",
      "parentid": "130600",
      "shortname": "安国",
      "leveltype": "3",
      "citycode": "0312",
      "zipcode": "071200",
      "lng": "115.32321",
      "lat": "38.41391",
      "pinyin": "Anguo",
      "status": "1"
    },
    {
      "id": "130684",
      "name": "高碑店市",
      "parentid": "130600",
      "shortname": "高碑店",
      "leveltype": "3",
      "citycode": "0312",
      "zipcode": "074000",
      "lng": "115.87368",
      "lat": "39.32655",
      "pinyin": "Gaobeidian",
      "status": "1"
    },
    {
      "id": "130700",
      "name": "张家口市",
      "parentid": "130000",
      "shortname": "张家口",
      "leveltype": "2",
      "citycode": "0313",
      "zipcode": "075000",
      "lng": "114.884091",
      "lat": "40.811901",
      "pinyin": "Zhangjiakou",
      "status": "1"
    },
    {
      "id": "130702",
      "name": "桥东区",
      "parentid": "130700",
      "shortname": "桥东",
      "leveltype": "3",
      "citycode": "0313",
      "zipcode": "075000",
      "lng": "114.8943",
      "lat": "40.78844",
      "pinyin": "Qiaodong",
      "status": "1"
    },
    {
      "id": "130703",
      "name": "桥西区",
      "parentid": "130700",
      "shortname": "桥西",
      "leveltype": "3",
      "citycode": "0313",
      "zipcode": "075061",
      "lng": "114.86962",
      "lat": "40.81945",
      "pinyin": "Qiaoxi",
      "status": "1"
    },
    {
      "id": "130705",
      "name": "宣化区",
      "parentid": "130700",
      "shortname": "宣化",
      "leveltype": "3",
      "citycode": "0313",
      "zipcode": "075100",
      "lng": "115.06543",
      "lat": "40.60957",
      "pinyin": "Xuanhua",
      "status": "1"
    },
    {
      "id": "130706",
      "name": "下花园区",
      "parentid": "130700",
      "shortname": "下花园",
      "leveltype": "3",
      "citycode": "0313",
      "zipcode": "075300",
      "lng": "115.28744",
      "lat": "40.50236",
      "pinyin": "Xiahuayuan",
      "status": "1"
    },
    {
      "id": "130721",
      "name": "宣化县",
      "parentid": "130700",
      "shortname": "宣化",
      "leveltype": "3",
      "citycode": "0313",
      "zipcode": "075100",
      "lng": "115.15497",
      "lat": "40.56618",
      "pinyin": "Xuanhua",
      "status": "1"
    },
    {
      "id": "130722",
      "name": "张北县",
      "parentid": "130700",
      "shortname": "张北",
      "leveltype": "3",
      "citycode": "0313",
      "zipcode": "076450",
      "lng": "114.71432",
      "lat": "41.15977",
      "pinyin": "Zhangbei",
      "status": "1"
    },
    {
      "id": "130723",
      "name": "康保县",
      "parentid": "130700",
      "shortname": "康保",
      "leveltype": "3",
      "citycode": "0313",
      "zipcode": "076650",
      "lng": "114.60031",
      "lat": "41.85225",
      "pinyin": "Kangbao",
      "status": "1"
    },
    {
      "id": "130724",
      "name": "沽源县",
      "parentid": "130700",
      "shortname": "沽源",
      "leveltype": "3",
      "citycode": "0313",
      "zipcode": "076550",
      "lng": "115.68859",
      "lat": "41.66959",
      "pinyin": "Guyuan",
      "status": "1"
    },
    {
      "id": "130725",
      "name": "尚义县",
      "parentid": "130700",
      "shortname": "尚义",
      "leveltype": "3",
      "citycode": "0313",
      "zipcode": "076750",
      "lng": "113.97134",
      "lat": "41.07782",
      "pinyin": "Shangyi",
      "status": "1"
    },
    {
      "id": "130726",
      "name": "蔚县",
      "parentid": "130700",
      "shortname": "蔚县",
      "leveltype": "3",
      "citycode": "0313",
      "zipcode": "075700",
      "lng": "114.58892",
      "lat": "39.84067",
      "pinyin": "Yuxian",
      "status": "1"
    },
    {
      "id": "130727",
      "name": "阳原县",
      "parentid": "130700",
      "shortname": "阳原",
      "leveltype": "3",
      "citycode": "0313",
      "zipcode": "075800",
      "lng": "114.15051",
      "lat": "40.10361",
      "pinyin": "Yangyuan",
      "status": "1"
    },
    {
      "id": "130728",
      "name": "怀安县",
      "parentid": "130700",
      "shortname": "怀安",
      "leveltype": "3",
      "citycode": "0313",
      "zipcode": "076150",
      "lng": "114.38559",
      "lat": "40.67425",
      "pinyin": "Huai\\'an",
      "status": "1"
    },
    {
      "id": "130729",
      "name": "万全县",
      "parentid": "130700",
      "shortname": "万全",
      "leveltype": "3",
      "citycode": "0313",
      "zipcode": "076250",
      "lng": "114.7405",
      "lat": "40.76694",
      "pinyin": "Wanquan",
      "status": "1"
    },
    {
      "id": "130730",
      "name": "怀来县",
      "parentid": "130700",
      "shortname": "怀来",
      "leveltype": "3",
      "citycode": "0313",
      "zipcode": "075400",
      "lng": "115.51773",
      "lat": "40.41536",
      "pinyin": "Huailai",
      "status": "1"
    },
    {
      "id": "130731",
      "name": "涿鹿县",
      "parentid": "130700",
      "shortname": "涿鹿",
      "leveltype": "3",
      "citycode": "0313",
      "zipcode": "075600",
      "lng": "115.22403",
      "lat": "40.37636",
      "pinyin": "Zhuolu",
      "status": "1"
    },
    {
      "id": "130732",
      "name": "赤城县",
      "parentid": "130700",
      "shortname": "赤城",
      "leveltype": "3",
      "citycode": "0313",
      "zipcode": "075500",
      "lng": "115.83187",
      "lat": "40.91438",
      "pinyin": "Chicheng",
      "status": "1"
    },
    {
      "id": "130733",
      "name": "崇礼县",
      "parentid": "130700",
      "shortname": "崇礼",
      "leveltype": "3",
      "citycode": "0313",
      "zipcode": "076350",
      "lng": "115.27993",
      "lat": "40.97519",
      "pinyin": "Chongli",
      "status": "1"
    },
    {
      "id": "130800",
      "name": "承德市",
      "parentid": "130000",
      "shortname": "承德",
      "leveltype": "2",
      "citycode": "0314",
      "zipcode": "067000",
      "lng": "117.939152",
      "lat": "40.976204",
      "pinyin": "Chengde",
      "status": "1"
    },
    {
      "id": "130802",
      "name": "双桥区",
      "parentid": "130800",
      "shortname": "双桥",
      "leveltype": "3",
      "citycode": "0314",
      "zipcode": "067000",
      "lng": "117.9432",
      "lat": "40.97466",
      "pinyin": "Shuangqiao",
      "status": "1"
    },
    {
      "id": "130803",
      "name": "双滦区",
      "parentid": "130800",
      "shortname": "双滦",
      "leveltype": "3",
      "citycode": "0314",
      "zipcode": "067001",
      "lng": "117.74487",
      "lat": "40.95375",
      "pinyin": "Shuangluan",
      "status": "1"
    },
    {
      "id": "130804",
      "name": "鹰手营子矿区",
      "parentid": "130800",
      "shortname": "鹰手营子矿区",
      "leveltype": "3",
      "citycode": "0314",
      "zipcode": "067200",
      "lng": "117.65985",
      "lat": "40.54744",
      "pinyin": "Yingshouyingzikuangqu",
      "status": "1"
    },
    {
      "id": "130821",
      "name": "承德县",
      "parentid": "130800",
      "shortname": "承德",
      "leveltype": "3",
      "citycode": "0314",
      "zipcode": "067400",
      "lng": "118.17639",
      "lat": "40.76985",
      "pinyin": "Chengde",
      "status": "1"
    },
    {
      "id": "130822",
      "name": "兴隆县",
      "parentid": "130800",
      "shortname": "兴隆",
      "leveltype": "3",
      "citycode": "0314",
      "zipcode": "067300",
      "lng": "117.50073",
      "lat": "40.41709",
      "pinyin": "Xinglong",
      "status": "1"
    },
    {
      "id": "130823",
      "name": "平泉县",
      "parentid": "130800",
      "shortname": "平泉",
      "leveltype": "3",
      "citycode": "0314",
      "zipcode": "067500",
      "lng": "118.70196",
      "lat": "41.01839",
      "pinyin": "Pingquan",
      "status": "1"
    },
    {
      "id": "130824",
      "name": "滦平县",
      "parentid": "130800",
      "shortname": "滦平",
      "leveltype": "3",
      "citycode": "0314",
      "zipcode": "068250",
      "lng": "117.33276",
      "lat": "40.94148",
      "pinyin": "Luanping",
      "status": "1"
    },
    {
      "id": "130825",
      "name": "隆化县",
      "parentid": "130800",
      "shortname": "隆化",
      "leveltype": "3",
      "citycode": "0314",
      "zipcode": "068150",
      "lng": "117.7297",
      "lat": "41.31412",
      "pinyin": "Longhua",
      "status": "1"
    },
    {
      "id": "130826",
      "name": "丰宁满族自治县",
      "parentid": "130800",
      "shortname": "丰宁",
      "leveltype": "3",
      "citycode": "0314",
      "zipcode": "068350",
      "lng": "116.6492",
      "lat": "41.20481",
      "pinyin": "Fengning",
      "status": "1"
    },
    {
      "id": "130827",
      "name": "宽城满族自治县",
      "parentid": "130800",
      "shortname": "宽城",
      "leveltype": "3",
      "citycode": "0314",
      "zipcode": "067600",
      "lng": "118.49176",
      "lat": "40.60829",
      "pinyin": "Kuancheng",
      "status": "1"
    },
    {
      "id": "130828",
      "name": "围场满族蒙古族自治县",
      "parentid": "130800",
      "shortname": "围场",
      "leveltype": "3",
      "citycode": "0314",
      "zipcode": "068450",
      "lng": "117.7601",
      "lat": "41.94368",
      "pinyin": "Weichang",
      "status": "1"
    },
    {
      "id": "130900",
      "name": "沧州市",
      "parentid": "130000",
      "shortname": "沧州",
      "leveltype": "2",
      "citycode": "0317",
      "zipcode": "061001",
      "lng": "116.857461",
      "lat": "38.310582",
      "pinyin": "Cangzhou",
      "status": "1"
    },
    {
      "id": "130902",
      "name": "新华区",
      "parentid": "130900",
      "shortname": "新华",
      "leveltype": "3",
      "citycode": "0317",
      "zipcode": "061000",
      "lng": "116.86643",
      "lat": "38.31438",
      "pinyin": "Xinhua",
      "status": "1"
    },
    {
      "id": "130903",
      "name": "运河区",
      "parentid": "130900",
      "shortname": "运河",
      "leveltype": "3",
      "citycode": "0317",
      "zipcode": "061001",
      "lng": "116.85706",
      "lat": "38.31352",
      "pinyin": "Yunhe",
      "status": "1"
    },
    {
      "id": "130921",
      "name": "沧县",
      "parentid": "130900",
      "shortname": "沧县",
      "leveltype": "3",
      "citycode": "0317",
      "zipcode": "061000",
      "lng": "116.87817",
      "lat": "38.29361",
      "pinyin": "Cangxian",
      "status": "1"
    },
    {
      "id": "130922",
      "name": "青县",
      "parentid": "130900",
      "shortname": "青县",
      "leveltype": "3",
      "citycode": "0317",
      "zipcode": "062650",
      "lng": "116.80316",
      "lat": "38.58345",
      "pinyin": "Qingxian",
      "status": "1"
    },
    {
      "id": "130923",
      "name": "东光县",
      "parentid": "130900",
      "shortname": "东光",
      "leveltype": "3",
      "citycode": "0317",
      "zipcode": "061600",
      "lng": "116.53668",
      "lat": "37.8857",
      "pinyin": "Dongguang",
      "status": "1"
    },
    {
      "id": "130924",
      "name": "海兴县",
      "parentid": "130900",
      "shortname": "海兴",
      "leveltype": "3",
      "citycode": "0317",
      "zipcode": "061200",
      "lng": "117.49758",
      "lat": "38.13958",
      "pinyin": "Haixing",
      "status": "1"
    },
    {
      "id": "130925",
      "name": "盐山县",
      "parentid": "130900",
      "shortname": "盐山",
      "leveltype": "3",
      "citycode": "0317",
      "zipcode": "061300",
      "lng": "117.23092",
      "lat": "38.05647",
      "pinyin": "Yanshan",
      "status": "1"
    },
    {
      "id": "130926",
      "name": "肃宁县",
      "parentid": "130900",
      "shortname": "肃宁",
      "leveltype": "3",
      "citycode": "0317",
      "zipcode": "062350",
      "lng": "115.82971",
      "lat": "38.42272",
      "pinyin": "Suning",
      "status": "1"
    },
    {
      "id": "130927",
      "name": "南皮县",
      "parentid": "130900",
      "shortname": "南皮",
      "leveltype": "3",
      "citycode": "0317",
      "zipcode": "061500",
      "lng": "116.70224",
      "lat": "38.04109",
      "pinyin": "Nanpi",
      "status": "1"
    },
    {
      "id": "130928",
      "name": "吴桥县",
      "parentid": "130900",
      "shortname": "吴桥",
      "leveltype": "3",
      "citycode": "0317",
      "zipcode": "061800",
      "lng": "116.3847",
      "lat": "37.62546",
      "pinyin": "Wuqiao",
      "status": "1"
    },
    {
      "id": "130929",
      "name": "献县",
      "parentid": "130900",
      "shortname": "献县",
      "leveltype": "3",
      "citycode": "0317",
      "zipcode": "062250",
      "lng": "116.12695",
      "lat": "38.19228",
      "pinyin": "Xianxian",
      "status": "1"
    },
    {
      "id": "130930",
      "name": "孟村回族自治县",
      "parentid": "130900",
      "shortname": "孟村",
      "leveltype": "3",
      "citycode": "0317",
      "zipcode": "061400",
      "lng": "117.10412",
      "lat": "38.05338",
      "pinyin": "Mengcun",
      "status": "1"
    },
    {
      "id": "130981",
      "name": "泊头市",
      "parentid": "130900",
      "shortname": "泊头",
      "leveltype": "3",
      "citycode": "0317",
      "zipcode": "062150",
      "lng": "116.57824",
      "lat": "38.08359",
      "pinyin": "Botou",
      "status": "1"
    },
    {
      "id": "130982",
      "name": "任丘市",
      "parentid": "130900",
      "shortname": "任丘",
      "leveltype": "3",
      "citycode": "0317",
      "zipcode": "062550",
      "lng": "116.1033",
      "lat": "38.71124",
      "pinyin": "Renqiu",
      "status": "1"
    },
    {
      "id": "130983",
      "name": "黄骅市",
      "parentid": "130900",
      "shortname": "黄骅",
      "leveltype": "3",
      "citycode": "0317",
      "zipcode": "061100",
      "lng": "117.33883",
      "lat": "38.3706",
      "pinyin": "Huanghua",
      "status": "1"
    },
    {
      "id": "130984",
      "name": "河间市",
      "parentid": "130900",
      "shortname": "河间",
      "leveltype": "3",
      "citycode": "0317",
      "zipcode": "062450",
      "lng": "116.0993",
      "lat": "38.44549",
      "pinyin": "Hejian",
      "status": "1"
    },
    {
      "id": "131000",
      "name": "廊坊市",
      "parentid": "130000",
      "shortname": "廊坊",
      "leveltype": "2",
      "citycode": "0316",
      "zipcode": "065000",
      "lng": "116.713873",
      "lat": "39.529244",
      "pinyin": "Langfang",
      "status": "1"
    },
    {
      "id": "131002",
      "name": "安次区",
      "parentid": "131000",
      "shortname": "安次",
      "leveltype": "3",
      "citycode": "0316",
      "zipcode": "065000",
      "lng": "116.70308",
      "lat": "39.52057",
      "pinyin": "Anci",
      "status": "1"
    },
    {
      "id": "131003",
      "name": "广阳区",
      "parentid": "131000",
      "shortname": "广阳",
      "leveltype": "3",
      "citycode": "0316",
      "zipcode": "065000",
      "lng": "116.71069",
      "lat": "39.52278",
      "pinyin": "Guangyang",
      "status": "1"
    },
    {
      "id": "131022",
      "name": "固安县",
      "parentid": "131000",
      "shortname": "固安",
      "leveltype": "3",
      "citycode": "0316",
      "zipcode": "065500",
      "lng": "116.29916",
      "lat": "39.43833",
      "pinyin": "Gu\\'an",
      "status": "1"
    },
    {
      "id": "131023",
      "name": "永清县",
      "parentid": "131000",
      "shortname": "永清",
      "leveltype": "3",
      "citycode": "0316",
      "zipcode": "065600",
      "lng": "116.50091",
      "lat": "39.32069",
      "pinyin": "Yongqing",
      "status": "1"
    },
    {
      "id": "131024",
      "name": "香河县",
      "parentid": "131000",
      "shortname": "香河",
      "leveltype": "3",
      "citycode": "0316",
      "zipcode": "065400",
      "lng": "117.00634",
      "lat": "39.76133",
      "pinyin": "Xianghe",
      "status": "1"
    },
    {
      "id": "131025",
      "name": "大城县",
      "parentid": "131000",
      "shortname": "大城",
      "leveltype": "3",
      "citycode": "0316",
      "zipcode": "065900",
      "lng": "116.65353",
      "lat": "38.70534",
      "pinyin": "Daicheng",
      "status": "1"
    },
    {
      "id": "131026",
      "name": "文安县",
      "parentid": "131000",
      "shortname": "文安",
      "leveltype": "3",
      "citycode": "0316",
      "zipcode": "065800",
      "lng": "116.45846",
      "lat": "38.87325",
      "pinyin": "Wen\\'an",
      "status": "1"
    },
    {
      "id": "131028",
      "name": "大厂回族自治县",
      "parentid": "131000",
      "shortname": "大厂",
      "leveltype": "3",
      "citycode": "0316",
      "zipcode": "065300",
      "lng": "116.98916",
      "lat": "39.88649",
      "pinyin": "Dachang",
      "status": "1"
    },
    {
      "id": "131081",
      "name": "霸州市",
      "parentid": "131000",
      "shortname": "霸州",
      "leveltype": "3",
      "citycode": "0316",
      "zipcode": "065700",
      "lng": "116.39154",
      "lat": "39.12569",
      "pinyin": "Bazhou",
      "status": "1"
    },
    {
      "id": "131082",
      "name": "三河市",
      "parentid": "131000",
      "shortname": "三河",
      "leveltype": "3",
      "citycode": "0316",
      "zipcode": "065200",
      "lng": "117.07229",
      "lat": "39.98358",
      "pinyin": "Sanhe",
      "status": "1"
    },
    {
      "id": "131100",
      "name": "衡水市",
      "parentid": "130000",
      "shortname": "衡水",
      "leveltype": "2",
      "citycode": "0318",
      "zipcode": "053000",
      "lng": "115.665993",
      "lat": "37.735097",
      "pinyin": "Hengshui",
      "status": "1"
    },
    {
      "id": "131102",
      "name": "桃城区",
      "parentid": "131100",
      "shortname": "桃城",
      "leveltype": "3",
      "citycode": "0318",
      "zipcode": "053000",
      "lng": "115.67529",
      "lat": "37.73499",
      "pinyin": "Taocheng",
      "status": "1"
    },
    {
      "id": "131121",
      "name": "枣强县",
      "parentid": "131100",
      "shortname": "枣强",
      "leveltype": "3",
      "citycode": "0318",
      "zipcode": "053100",
      "lng": "115.72576",
      "lat": "37.51027",
      "pinyin": "Zaoqiang",
      "status": "1"
    },
    {
      "id": "131122",
      "name": "武邑县",
      "parentid": "131100",
      "shortname": "武邑",
      "leveltype": "3",
      "citycode": "0318",
      "zipcode": "053400",
      "lng": "115.88748",
      "lat": "37.80181",
      "pinyin": "Wuyi",
      "status": "1"
    },
    {
      "id": "131123",
      "name": "武强县",
      "parentid": "131100",
      "shortname": "武强",
      "leveltype": "3",
      "citycode": "0318",
      "zipcode": "053300",
      "lng": "115.98226",
      "lat": "38.04138",
      "pinyin": "Wuqiang",
      "status": "1"
    },
    {
      "id": "131124",
      "name": "饶阳县",
      "parentid": "131100",
      "shortname": "饶阳",
      "leveltype": "3",
      "citycode": "0318",
      "zipcode": "053900",
      "lng": "115.72558",
      "lat": "38.23529",
      "pinyin": "Raoyang",
      "status": "1"
    },
    {
      "id": "131125",
      "name": "安平县",
      "parentid": "131100",
      "shortname": "安平",
      "leveltype": "3",
      "citycode": "0318",
      "zipcode": "053600",
      "lng": "115.51876",
      "lat": "38.23388",
      "pinyin": "Anping",
      "status": "1"
    },
    {
      "id": "131126",
      "name": "故城县",
      "parentid": "131100",
      "shortname": "故城",
      "leveltype": "3",
      "citycode": "0318",
      "zipcode": "053800",
      "lng": "115.97076",
      "lat": "37.34773",
      "pinyin": "Gucheng",
      "status": "1"
    },
    {
      "id": "131127",
      "name": "景县",
      "parentid": "131100",
      "shortname": "景县",
      "leveltype": "3",
      "citycode": "0318",
      "zipcode": "053500",
      "lng": "116.26904",
      "lat": "37.6926",
      "pinyin": "Jingxian",
      "status": "1"
    },
    {
      "id": "131128",
      "name": "阜城县",
      "parentid": "131100",
      "shortname": "阜城",
      "leveltype": "3",
      "citycode": "0318",
      "zipcode": "053700",
      "lng": "116.14431",
      "lat": "37.86881",
      "pinyin": "Fucheng",
      "status": "1"
    },
    {
      "id": "131181",
      "name": "冀州市",
      "parentid": "131100",
      "shortname": "冀州",
      "leveltype": "3",
      "citycode": "0318",
      "zipcode": "053200",
      "lng": "115.57934",
      "lat": "37.55082",
      "pinyin": "Jizhou",
      "status": "1"
    },
    {
      "id": "131182",
      "name": "深州市",
      "parentid": "131100",
      "shortname": "深州",
      "leveltype": "3",
      "citycode": "0318",
      "zipcode": "053800",
      "lng": "115.55993",
      "lat": "38.00109",
      "pinyin": "Shenzhou",
      "status": "1"
    },
    {
      "id": "140000",
      "name": "山西省",
      "parentid": "100000",
      "shortname": "山西",
      "leveltype": "1",
      "citycode": "",
      "zipcode": "",
      "lng": "112.549248",
      "lat": "37.857014",
      "pinyin": "Shanxi",
      "status": "1"
    },
    {
      "id": "140100",
      "name": "太原市",
      "parentid": "140000",
      "shortname": "太原",
      "leveltype": "2",
      "citycode": "0351",
      "zipcode": "030082",
      "lng": "112.549248",
      "lat": "37.857014",
      "pinyin": "Taiyuan",
      "status": "1"
    },
    {
      "id": "140105",
      "name": "小店区",
      "parentid": "140100",
      "shortname": "小店",
      "leveltype": "3",
      "citycode": "0351",
      "zipcode": "030032",
      "lng": "112.56878",
      "lat": "37.73565",
      "pinyin": "Xiaodian",
      "status": "1"
    },
    {
      "id": "140106",
      "name": "迎泽区",
      "parentid": "140100",
      "shortname": "迎泽",
      "leveltype": "3",
      "citycode": "0351",
      "zipcode": "030002",
      "lng": "112.56338",
      "lat": "37.86326",
      "pinyin": "Yingze",
      "status": "1"
    },
    {
      "id": "140107",
      "name": "杏花岭区",
      "parentid": "140100",
      "shortname": "杏花岭",
      "leveltype": "3",
      "citycode": "0351",
      "zipcode": "030009",
      "lng": "112.56237",
      "lat": "37.88429",
      "pinyin": "Xinghualing",
      "status": "1"
    },
    {
      "id": "140108",
      "name": "尖草坪区",
      "parentid": "140100",
      "shortname": "尖草坪",
      "leveltype": "3",
      "citycode": "0351",
      "zipcode": "030023",
      "lng": "112.48709",
      "lat": "37.94193",
      "pinyin": "Jiancaoping",
      "status": "1"
    },
    {
      "id": "140109",
      "name": "万柏林区",
      "parentid": "140100",
      "shortname": "万柏林",
      "leveltype": "3",
      "citycode": "0351",
      "zipcode": "030024",
      "lng": "112.51553",
      "lat": "37.85923",
      "pinyin": "Wanbailin",
      "status": "1"
    },
    {
      "id": "140110",
      "name": "晋源区",
      "parentid": "140100",
      "shortname": "晋源",
      "leveltype": "3",
      "citycode": "0351",
      "zipcode": "030025",
      "lng": "112.47985",
      "lat": "37.72479",
      "pinyin": "Jinyuan",
      "status": "1"
    },
    {
      "id": "140121",
      "name": "清徐县",
      "parentid": "140100",
      "shortname": "清徐",
      "leveltype": "3",
      "citycode": "0351",
      "zipcode": "030400",
      "lng": "112.35888",
      "lat": "37.60758",
      "pinyin": "Qingxu",
      "status": "1"
    },
    {
      "id": "140122",
      "name": "阳曲县",
      "parentid": "140100",
      "shortname": "阳曲",
      "leveltype": "3",
      "citycode": "0351",
      "zipcode": "030100",
      "lng": "112.67861",
      "lat": "38.05989",
      "pinyin": "Yangqu",
      "status": "1"
    },
    {
      "id": "140123",
      "name": "娄烦县",
      "parentid": "140100",
      "shortname": "娄烦",
      "leveltype": "3",
      "citycode": "0351",
      "zipcode": "030300",
      "lng": "111.79473",
      "lat": "38.06689",
      "pinyin": "Loufan",
      "status": "1"
    },
    {
      "id": "140181",
      "name": "古交市",
      "parentid": "140100",
      "shortname": "古交",
      "leveltype": "3",
      "citycode": "0351",
      "zipcode": "030200",
      "lng": "112.16918",
      "lat": "37.90983",
      "pinyin": "Gujiao",
      "status": "1"
    },
    {
      "id": "140200",
      "name": "大同市",
      "parentid": "140000",
      "shortname": "大同",
      "leveltype": "2",
      "citycode": "0352",
      "zipcode": "037008",
      "lng": "113.295259",
      "lat": "40.09031",
      "pinyin": "Datong",
      "status": "1"
    },
    {
      "id": "140202",
      "name": "城区",
      "parentid": "140200",
      "shortname": "城区",
      "leveltype": "3",
      "citycode": "0352",
      "zipcode": "037008",
      "lng": "113.298",
      "lat": "40.07566",
      "pinyin": "Chengqu",
      "status": "1"
    },
    {
      "id": "140203",
      "name": "矿区",
      "parentid": "140200",
      "shortname": "矿区",
      "leveltype": "3",
      "citycode": "0352",
      "zipcode": "037003",
      "lng": "113.1772",
      "lat": "40.03685",
      "pinyin": "Kuangqu",
      "status": "1"
    },
    {
      "id": "140211",
      "name": "南郊区",
      "parentid": "140200",
      "shortname": "南郊",
      "leveltype": "3",
      "citycode": "0352",
      "zipcode": "037001",
      "lng": "113.14947",
      "lat": "40.00539",
      "pinyin": "Nanjiao",
      "status": "1"
    },
    {
      "id": "140212",
      "name": "新荣区",
      "parentid": "140200",
      "shortname": "新荣",
      "leveltype": "3",
      "citycode": "0352",
      "zipcode": "037002",
      "lng": "113.13504",
      "lat": "40.25618",
      "pinyin": "Xinrong",
      "status": "1"
    },
    {
      "id": "140221",
      "name": "阳高县",
      "parentid": "140200",
      "shortname": "阳高",
      "leveltype": "3",
      "citycode": "0352",
      "zipcode": "038100",
      "lng": "113.75012",
      "lat": "40.36256",
      "pinyin": "Yanggao",
      "status": "1"
    },
    {
      "id": "140222",
      "name": "天镇县",
      "parentid": "140200",
      "shortname": "天镇",
      "leveltype": "3",
      "citycode": "0352",
      "zipcode": "038200",
      "lng": "114.0931",
      "lat": "40.42299",
      "pinyin": "Tianzhen",
      "status": "1"
    },
    {
      "id": "140223",
      "name": "广灵县",
      "parentid": "140200",
      "shortname": "广灵",
      "leveltype": "3",
      "citycode": "0352",
      "zipcode": "037500",
      "lng": "114.28204",
      "lat": "39.76082",
      "pinyin": "Guangling",
      "status": "1"
    },
    {
      "id": "140224",
      "name": "灵丘县",
      "parentid": "140200",
      "shortname": "灵丘",
      "leveltype": "3",
      "citycode": "0352",
      "zipcode": "034400",
      "lng": "114.23672",
      "lat": "39.44043",
      "pinyin": "Lingqiu",
      "status": "1"
    },
    {
      "id": "140225",
      "name": "浑源县",
      "parentid": "140200",
      "shortname": "浑源",
      "leveltype": "3",
      "citycode": "0352",
      "zipcode": "037400",
      "lng": "113.69552",
      "lat": "39.69962",
      "pinyin": "Hunyuan",
      "status": "1"
    },
    {
      "id": "140226",
      "name": "左云县",
      "parentid": "140200",
      "shortname": "左云",
      "leveltype": "3",
      "citycode": "0352",
      "zipcode": "037100",
      "lng": "112.70266",
      "lat": "40.01336",
      "pinyin": "Zuoyun",
      "status": "1"
    },
    {
      "id": "140227",
      "name": "大同县",
      "parentid": "140200",
      "shortname": "大同",
      "leveltype": "3",
      "citycode": "0352",
      "zipcode": "037300",
      "lng": "113.61212",
      "lat": "40.04012",
      "pinyin": "Datong",
      "status": "1"
    },
    {
      "id": "140300",
      "name": "阳泉市",
      "parentid": "140000",
      "shortname": "阳泉",
      "leveltype": "2",
      "citycode": "0353",
      "zipcode": "045000",
      "lng": "113.583285",
      "lat": "37.861188",
      "pinyin": "Yangquan",
      "status": "1"
    },
    {
      "id": "140302",
      "name": "城区",
      "parentid": "140300",
      "shortname": "城区",
      "leveltype": "3",
      "citycode": "0353",
      "zipcode": "045000",
      "lng": "113.60069",
      "lat": "37.8474",
      "pinyin": "Chengqu",
      "status": "1"
    },
    {
      "id": "140303",
      "name": "矿区",
      "parentid": "140300",
      "shortname": "矿区",
      "leveltype": "3",
      "citycode": "0353",
      "zipcode": "045000",
      "lng": "113.55677",
      "lat": "37.86895",
      "pinyin": "Kuangqu",
      "status": "1"
    },
    {
      "id": "140311",
      "name": "郊区",
      "parentid": "140300",
      "shortname": "郊区",
      "leveltype": "3",
      "citycode": "0353",
      "zipcode": "045011",
      "lng": "113.58539",
      "lat": "37.94139",
      "pinyin": "Jiaoqu",
      "status": "1"
    },
    {
      "id": "140321",
      "name": "平定县",
      "parentid": "140300",
      "shortname": "平定",
      "leveltype": "3",
      "citycode": "0353",
      "zipcode": "045200",
      "lng": "113.65789",
      "lat": "37.78601",
      "pinyin": "Pingding",
      "status": "1"
    },
    {
      "id": "140322",
      "name": "盂县",
      "parentid": "140300",
      "shortname": "盂县",
      "leveltype": "3",
      "citycode": "0353",
      "zipcode": "045100",
      "lng": "113.41235",
      "lat": "38.08579",
      "pinyin": "Yuxian",
      "status": "1"
    },
    {
      "id": "140400",
      "name": "长治市",
      "parentid": "140000",
      "shortname": "长治",
      "leveltype": "2",
      "citycode": "0355",
      "zipcode": "046000",
      "lng": "113.113556",
      "lat": "36.191112",
      "pinyin": "Changzhi",
      "status": "1"
    },
    {
      "id": "140402",
      "name": "城区",
      "parentid": "140400",
      "shortname": "城区",
      "leveltype": "3",
      "citycode": "0355",
      "zipcode": "046011",
      "lng": "113.12308",
      "lat": "36.20351",
      "pinyin": "Chengqu",
      "status": "1"
    },
    {
      "id": "140411",
      "name": "郊区",
      "parentid": "140400",
      "shortname": "郊区",
      "leveltype": "3",
      "citycode": "0355",
      "zipcode": "046011",
      "lng": "113.12653",
      "lat": "36.19918",
      "pinyin": "Jiaoqu",
      "status": "1"
    },
    {
      "id": "140421",
      "name": "长治县",
      "parentid": "140400",
      "shortname": "长治",
      "leveltype": "3",
      "citycode": "0355",
      "zipcode": "047100",
      "lng": "113.04791",
      "lat": "36.04722",
      "pinyin": "Changzhi",
      "status": "1"
    },
    {
      "id": "140423",
      "name": "襄垣县",
      "parentid": "140400",
      "shortname": "襄垣",
      "leveltype": "3",
      "citycode": "0355",
      "zipcode": "046200",
      "lng": "113.05157",
      "lat": "36.53527",
      "pinyin": "Xiangyuan",
      "status": "1"
    },
    {
      "id": "140424",
      "name": "屯留县",
      "parentid": "140400",
      "shortname": "屯留",
      "leveltype": "3",
      "citycode": "0355",
      "zipcode": "046100",
      "lng": "112.89196",
      "lat": "36.31579",
      "pinyin": "Tunliu",
      "status": "1"
    },
    {
      "id": "140425",
      "name": "平顺县",
      "parentid": "140400",
      "shortname": "平顺",
      "leveltype": "3",
      "citycode": "0355",
      "zipcode": "047400",
      "lng": "113.43603",
      "lat": "36.20005",
      "pinyin": "Pingshun",
      "status": "1"
    },
    {
      "id": "140426",
      "name": "黎城县",
      "parentid": "140400",
      "shortname": "黎城",
      "leveltype": "3",
      "citycode": "0355",
      "zipcode": "047600",
      "lng": "113.38766",
      "lat": "36.50301",
      "pinyin": "Licheng",
      "status": "1"
    },
    {
      "id": "140427",
      "name": "壶关县",
      "parentid": "140400",
      "shortname": "壶关",
      "leveltype": "3",
      "citycode": "0355",
      "zipcode": "047300",
      "lng": "113.207",
      "lat": "36.11301",
      "pinyin": "Huguan",
      "status": "1"
    },
    {
      "id": "140428",
      "name": "长子县",
      "parentid": "140400",
      "shortname": "长子",
      "leveltype": "3",
      "citycode": "0355",
      "zipcode": "046600",
      "lng": "112.87731",
      "lat": "36.12125",
      "pinyin": "Zhangzi",
      "status": "1"
    },
    {
      "id": "140429",
      "name": "武乡县",
      "parentid": "140400",
      "shortname": "武乡",
      "leveltype": "3",
      "citycode": "0355",
      "zipcode": "046300",
      "lng": "112.86343",
      "lat": "36.83687",
      "pinyin": "Wuxiang",
      "status": "1"
    },
    {
      "id": "140430",
      "name": "沁县",
      "parentid": "140400",
      "shortname": "沁县",
      "leveltype": "3",
      "citycode": "0355",
      "zipcode": "046400",
      "lng": "112.69863",
      "lat": "36.75628",
      "pinyin": "Qinxian",
      "status": "1"
    },
    {
      "id": "140431",
      "name": "沁源县",
      "parentid": "140400",
      "shortname": "沁源",
      "leveltype": "3",
      "citycode": "0355",
      "zipcode": "046500",
      "lng": "112.33758",
      "lat": "36.50008",
      "pinyin": "Qinyuan",
      "status": "1"
    },
    {
      "id": "140481",
      "name": "潞城市",
      "parentid": "140400",
      "shortname": "潞城",
      "leveltype": "3",
      "citycode": "0355",
      "zipcode": "047500",
      "lng": "113.22888",
      "lat": "36.33414",
      "pinyin": "Lucheng",
      "status": "1"
    },
    {
      "id": "140500",
      "name": "晋城市",
      "parentid": "140000",
      "shortname": "晋城",
      "leveltype": "2",
      "citycode": "0356",
      "zipcode": "048000",
      "lng": "112.851274",
      "lat": "35.497553",
      "pinyin": "Jincheng",
      "status": "1"
    },
    {
      "id": "140502",
      "name": "城区",
      "parentid": "140500",
      "shortname": "城区",
      "leveltype": "3",
      "citycode": "0356",
      "zipcode": "048000",
      "lng": "112.85319",
      "lat": "35.50175",
      "pinyin": "Chengqu",
      "status": "1"
    },
    {
      "id": "140521",
      "name": "沁水县",
      "parentid": "140500",
      "shortname": "沁水",
      "leveltype": "3",
      "citycode": "0356",
      "zipcode": "048200",
      "lng": "112.1871",
      "lat": "35.69102",
      "pinyin": "Qinshui",
      "status": "1"
    },
    {
      "id": "140522",
      "name": "阳城县",
      "parentid": "140500",
      "shortname": "阳城",
      "leveltype": "3",
      "citycode": "0356",
      "zipcode": "048100",
      "lng": "112.41485",
      "lat": "35.48614",
      "pinyin": "Yangcheng",
      "status": "1"
    },
    {
      "id": "140524",
      "name": "陵川县",
      "parentid": "140500",
      "shortname": "陵川",
      "leveltype": "3",
      "citycode": "0356",
      "zipcode": "048300",
      "lng": "113.2806",
      "lat": "35.77532",
      "pinyin": "Lingchuan",
      "status": "1"
    },
    {
      "id": "140525",
      "name": "泽州县",
      "parentid": "140500",
      "shortname": "泽州",
      "leveltype": "3",
      "citycode": "0356",
      "zipcode": "048012",
      "lng": "112.83947",
      "lat": "35.50789",
      "pinyin": "Zezhou",
      "status": "1"
    },
    {
      "id": "140581",
      "name": "高平市",
      "parentid": "140500",
      "shortname": "高平",
      "leveltype": "3",
      "citycode": "0356",
      "zipcode": "048400",
      "lng": "112.92288",
      "lat": "35.79705",
      "pinyin": "Gaoping",
      "status": "1"
    },
    {
      "id": "140600",
      "name": "朔州市",
      "parentid": "140000",
      "shortname": "朔州",
      "leveltype": "2",
      "citycode": "0349",
      "zipcode": "038500",
      "lng": "112.433387",
      "lat": "39.331261",
      "pinyin": "Shuozhou",
      "status": "1"
    },
    {
      "id": "140602",
      "name": "朔城区",
      "parentid": "140600",
      "shortname": "朔城",
      "leveltype": "3",
      "citycode": "0349",
      "zipcode": "036000",
      "lng": "112.43189",
      "lat": "39.31982",
      "pinyin": "Shuocheng",
      "status": "1"
    },
    {
      "id": "140603",
      "name": "平鲁区",
      "parentid": "140600",
      "shortname": "平鲁",
      "leveltype": "3",
      "citycode": "0349",
      "zipcode": "038600",
      "lng": "112.28833",
      "lat": "39.51155",
      "pinyin": "Pinglu",
      "status": "1"
    },
    {
      "id": "140621",
      "name": "山阴县",
      "parentid": "140600",
      "shortname": "山阴",
      "leveltype": "3",
      "citycode": "0349",
      "zipcode": "036900",
      "lng": "112.81662",
      "lat": "39.52697",
      "pinyin": "Shanyin",
      "status": "1"
    },
    {
      "id": "140622",
      "name": "应县",
      "parentid": "140600",
      "shortname": "应县",
      "leveltype": "3",
      "citycode": "0349",
      "zipcode": "037600",
      "lng": "113.19052",
      "lat": "39.55279",
      "pinyin": "Yingxian",
      "status": "1"
    },
    {
      "id": "140623",
      "name": "右玉县",
      "parentid": "140600",
      "shortname": "右玉",
      "leveltype": "3",
      "citycode": "0349",
      "zipcode": "037200",
      "lng": "112.46902",
      "lat": "39.99011",
      "pinyin": "Youyu",
      "status": "1"
    },
    {
      "id": "140624",
      "name": "怀仁县",
      "parentid": "140600",
      "shortname": "怀仁",
      "leveltype": "3",
      "citycode": "0349",
      "zipcode": "038300",
      "lng": "113.10009",
      "lat": "39.82806",
      "pinyin": "Huairen",
      "status": "1"
    },
    {
      "id": "140700",
      "name": "晋中市",
      "parentid": "140000",
      "shortname": "晋中",
      "leveltype": "2",
      "citycode": "0354",
      "zipcode": "030600",
      "lng": "112.736465",
      "lat": "37.696495",
      "pinyin": "Jinzhong",
      "status": "1"
    },
    {
      "id": "140702",
      "name": "榆次区",
      "parentid": "140700",
      "shortname": "榆次",
      "leveltype": "3",
      "citycode": "0354",
      "zipcode": "030600",
      "lng": "112.70788",
      "lat": "37.6978",
      "pinyin": "Yuci",
      "status": "1"
    },
    {
      "id": "140721",
      "name": "榆社县",
      "parentid": "140700",
      "shortname": "榆社",
      "leveltype": "3",
      "citycode": "0354",
      "zipcode": "031800",
      "lng": "112.97558",
      "lat": "37.0721",
      "pinyin": "Yushe",
      "status": "1"
    },
    {
      "id": "140722",
      "name": "左权县",
      "parentid": "140700",
      "shortname": "左权",
      "leveltype": "3",
      "citycode": "0354",
      "zipcode": "032600",
      "lng": "113.37918",
      "lat": "37.08235",
      "pinyin": "Zuoquan",
      "status": "1"
    },
    {
      "id": "140723",
      "name": "和顺县",
      "parentid": "140700",
      "shortname": "和顺",
      "leveltype": "3",
      "citycode": "0354",
      "zipcode": "032700",
      "lng": "113.56988",
      "lat": "37.32963",
      "pinyin": "Heshun",
      "status": "1"
    },
    {
      "id": "140724",
      "name": "昔阳县",
      "parentid": "140700",
      "shortname": "昔阳",
      "leveltype": "3",
      "citycode": "0354",
      "zipcode": "045300",
      "lng": "113.70517",
      "lat": "37.61863",
      "pinyin": "Xiyang",
      "status": "1"
    },
    {
      "id": "140725",
      "name": "寿阳县",
      "parentid": "140700",
      "shortname": "寿阳",
      "leveltype": "3",
      "citycode": "0354",
      "zipcode": "045400",
      "lng": "113.17495",
      "lat": "37.88899",
      "pinyin": "Shouyang",
      "status": "1"
    },
    {
      "id": "140726",
      "name": "太谷县",
      "parentid": "140700",
      "shortname": "太谷",
      "leveltype": "3",
      "citycode": "0354",
      "zipcode": "030800",
      "lng": "112.55246",
      "lat": "37.42161",
      "pinyin": "Taigu",
      "status": "1"
    },
    {
      "id": "140727",
      "name": "祁县",
      "parentid": "140700",
      "shortname": "祁县",
      "leveltype": "3",
      "citycode": "0354",
      "zipcode": "030900",
      "lng": "112.33358",
      "lat": "37.3579",
      "pinyin": "Qixian",
      "status": "1"
    },
    {
      "id": "140728",
      "name": "平遥县",
      "parentid": "140700",
      "shortname": "平遥",
      "leveltype": "3",
      "citycode": "0354",
      "zipcode": "031100",
      "lng": "112.17553",
      "lat": "37.1892",
      "pinyin": "Pingyao",
      "status": "1"
    },
    {
      "id": "140729",
      "name": "灵石县",
      "parentid": "140700",
      "shortname": "灵石",
      "leveltype": "3",
      "citycode": "0354",
      "zipcode": "031300",
      "lng": "111.7774",
      "lat": "36.84814",
      "pinyin": "Lingshi",
      "status": "1"
    },
    {
      "id": "140781",
      "name": "介休市",
      "parentid": "140700",
      "shortname": "介休",
      "leveltype": "3",
      "citycode": "0354",
      "zipcode": "032000",
      "lng": "111.91824",
      "lat": "37.02771",
      "pinyin": "Jiexiu",
      "status": "1"
    },
    {
      "id": "140800",
      "name": "运城市",
      "parentid": "140000",
      "shortname": "运城",
      "leveltype": "2",
      "citycode": "0359",
      "zipcode": "044000",
      "lng": "111.003957",
      "lat": "35.022778",
      "pinyin": "Yuncheng",
      "status": "1"
    },
    {
      "id": "140802",
      "name": "盐湖区",
      "parentid": "140800",
      "shortname": "盐湖",
      "leveltype": "3",
      "citycode": "0359",
      "zipcode": "044000",
      "lng": "110.99827",
      "lat": "35.0151",
      "pinyin": "Yanhu",
      "status": "1"
    },
    {
      "id": "140821",
      "name": "临猗县",
      "parentid": "140800",
      "shortname": "临猗",
      "leveltype": "3",
      "citycode": "0359",
      "zipcode": "044100",
      "lng": "110.77432",
      "lat": "35.14455",
      "pinyin": "Linyi",
      "status": "1"
    },
    {
      "id": "140822",
      "name": "万荣县",
      "parentid": "140800",
      "shortname": "万荣",
      "leveltype": "3",
      "citycode": "0359",
      "zipcode": "044200",
      "lng": "110.83657",
      "lat": "35.41556",
      "pinyin": "Wanrong",
      "status": "1"
    },
    {
      "id": "140823",
      "name": "闻喜县",
      "parentid": "140800",
      "shortname": "闻喜",
      "leveltype": "3",
      "citycode": "0359",
      "zipcode": "043800",
      "lng": "111.22265",
      "lat": "35.35553",
      "pinyin": "Wenxi",
      "status": "1"
    },
    {
      "id": "140824",
      "name": "稷山县",
      "parentid": "140800",
      "shortname": "稷山",
      "leveltype": "3",
      "citycode": "0359",
      "zipcode": "043200",
      "lng": "110.97924",
      "lat": "35.59993",
      "pinyin": "Jishan",
      "status": "1"
    },
    {
      "id": "140825",
      "name": "新绛县",
      "parentid": "140800",
      "shortname": "新绛",
      "leveltype": "3",
      "citycode": "0359",
      "zipcode": "043100",
      "lng": "111.22509",
      "lat": "35.61566",
      "pinyin": "Xinjiang",
      "status": "1"
    },
    {
      "id": "140826",
      "name": "绛县",
      "parentid": "140800",
      "shortname": "绛县",
      "leveltype": "3",
      "citycode": "0359",
      "zipcode": "043600",
      "lng": "111.56668",
      "lat": "35.49096",
      "pinyin": "Jiangxian",
      "status": "1"
    },
    {
      "id": "140827",
      "name": "垣曲县",
      "parentid": "140800",
      "shortname": "垣曲",
      "leveltype": "3",
      "citycode": "0359",
      "zipcode": "043700",
      "lng": "111.67166",
      "lat": "35.29923",
      "pinyin": "Yuanqu",
      "status": "1"
    },
    {
      "id": "140828",
      "name": "夏县",
      "parentid": "140800",
      "shortname": "夏县",
      "leveltype": "3",
      "citycode": "0359",
      "zipcode": "044400",
      "lng": "111.21966",
      "lat": "35.14121",
      "pinyin": "Xiaxian",
      "status": "1"
    },
    {
      "id": "140829",
      "name": "平陆县",
      "parentid": "140800",
      "shortname": "平陆",
      "leveltype": "3",
      "citycode": "0359",
      "zipcode": "044300",
      "lng": "111.21704",
      "lat": "34.83772",
      "pinyin": "Pinglu",
      "status": "1"
    },
    {
      "id": "140830",
      "name": "芮城县",
      "parentid": "140800",
      "shortname": "芮城",
      "leveltype": "3",
      "citycode": "0359",
      "zipcode": "044600",
      "lng": "110.69455",
      "lat": "34.69384",
      "pinyin": "Ruicheng",
      "status": "1"
    },
    {
      "id": "140881",
      "name": "永济市",
      "parentid": "140800",
      "shortname": "永济",
      "leveltype": "3",
      "citycode": "0359",
      "zipcode": "044500",
      "lng": "110.44537",
      "lat": "34.86556",
      "pinyin": "Yongji",
      "status": "1"
    },
    {
      "id": "140882",
      "name": "河津市",
      "parentid": "140800",
      "shortname": "河津",
      "leveltype": "3",
      "citycode": "0359",
      "zipcode": "043300",
      "lng": "110.7116",
      "lat": "35.59478",
      "pinyin": "Hejin",
      "status": "1"
    },
    {
      "id": "140900",
      "name": "忻州市",
      "parentid": "140000",
      "shortname": "忻州",
      "leveltype": "2",
      "citycode": "0350",
      "zipcode": "034000",
      "lng": "112.733538",
      "lat": "38.41769",
      "pinyin": "Xinzhou",
      "status": "1"
    },
    {
      "id": "140902",
      "name": "忻府区",
      "parentid": "140900",
      "shortname": "忻府",
      "leveltype": "3",
      "citycode": "0350",
      "zipcode": "034000",
      "lng": "112.74603",
      "lat": "38.40414",
      "pinyin": "Xinfu",
      "status": "1"
    },
    {
      "id": "140921",
      "name": "定襄县",
      "parentid": "140900",
      "shortname": "定襄",
      "leveltype": "3",
      "citycode": "0350",
      "zipcode": "035400",
      "lng": "112.95733",
      "lat": "38.47387",
      "pinyin": "Dingxiang",
      "status": "1"
    },
    {
      "id": "140922",
      "name": "五台县",
      "parentid": "140900",
      "shortname": "五台",
      "leveltype": "3",
      "citycode": "0350",
      "zipcode": "035500",
      "lng": "113.25256",
      "lat": "38.72774",
      "pinyin": "Wutai",
      "status": "1"
    },
    {
      "id": "140923",
      "name": "代县",
      "parentid": "140900",
      "shortname": "代县",
      "leveltype": "3",
      "citycode": "0350",
      "zipcode": "034200",
      "lng": "112.95913",
      "lat": "39.06717",
      "pinyin": "Daixian",
      "status": "1"
    },
    {
      "id": "140924",
      "name": "繁峙县",
      "parentid": "140900",
      "shortname": "繁峙",
      "leveltype": "3",
      "citycode": "0350",
      "zipcode": "034300",
      "lng": "113.26303",
      "lat": "39.18886",
      "pinyin": "Fanshi",
      "status": "1"
    },
    {
      "id": "140925",
      "name": "宁武县",
      "parentid": "140900",
      "shortname": "宁武",
      "leveltype": "3",
      "citycode": "0350",
      "zipcode": "036700",
      "lng": "112.30423",
      "lat": "39.00211",
      "pinyin": "Ningwu",
      "status": "1"
    },
    {
      "id": "140926",
      "name": "静乐县",
      "parentid": "140900",
      "shortname": "静乐",
      "leveltype": "3",
      "citycode": "0350",
      "zipcode": "035100",
      "lng": "111.94158",
      "lat": "38.3602",
      "pinyin": "Jingle",
      "status": "1"
    },
    {
      "id": "140927",
      "name": "神池县",
      "parentid": "140900",
      "shortname": "神池",
      "leveltype": "3",
      "citycode": "0350",
      "zipcode": "036100",
      "lng": "112.20541",
      "lat": "39.09",
      "pinyin": "Shenchi",
      "status": "1"
    },
    {
      "id": "140928",
      "name": "五寨县",
      "parentid": "140900",
      "shortname": "五寨",
      "leveltype": "3",
      "citycode": "0350",
      "zipcode": "036200",
      "lng": "111.8489",
      "lat": "38.90757",
      "pinyin": "Wuzhai",
      "status": "1"
    },
    {
      "id": "140929",
      "name": "岢岚县",
      "parentid": "140900",
      "shortname": "岢岚",
      "leveltype": "3",
      "citycode": "0350",
      "zipcode": "036300",
      "lng": "111.57388",
      "lat": "38.70452",
      "pinyin": "Kelan",
      "status": "1"
    },
    {
      "id": "140930",
      "name": "河曲县",
      "parentid": "140900",
      "shortname": "河曲",
      "leveltype": "3",
      "citycode": "0350",
      "zipcode": "036500",
      "lng": "111.13821",
      "lat": "39.38439",
      "pinyin": "Hequ",
      "status": "1"
    },
    {
      "id": "140931",
      "name": "保德县",
      "parentid": "140900",
      "shortname": "保德",
      "leveltype": "3",
      "citycode": "0350",
      "zipcode": "036600",
      "lng": "111.08656",
      "lat": "39.02248",
      "pinyin": "Baode",
      "status": "1"
    },
    {
      "id": "140932",
      "name": "偏关县",
      "parentid": "140900",
      "shortname": "偏关",
      "leveltype": "3",
      "citycode": "0350",
      "zipcode": "036400",
      "lng": "111.50863",
      "lat": "39.43609",
      "pinyin": "Pianguan",
      "status": "1"
    },
    {
      "id": "140981",
      "name": "原平市",
      "parentid": "140900",
      "shortname": "原平",
      "leveltype": "3",
      "citycode": "0350",
      "zipcode": "034100",
      "lng": "112.70584",
      "lat": "38.73181",
      "pinyin": "Yuanping",
      "status": "1"
    },
    {
      "id": "141000",
      "name": "临汾市",
      "parentid": "140000",
      "shortname": "临汾",
      "leveltype": "2",
      "citycode": "0357",
      "zipcode": "041000",
      "lng": "111.517973",
      "lat": "36.08415",
      "pinyin": "Linfen",
      "status": "1"
    },
    {
      "id": "141002",
      "name": "尧都区",
      "parentid": "141000",
      "shortname": "尧都",
      "leveltype": "3",
      "citycode": "0357",
      "zipcode": "041000",
      "lng": "111.5787",
      "lat": "36.08298",
      "pinyin": "Yaodu",
      "status": "1"
    },
    {
      "id": "141021",
      "name": "曲沃县",
      "parentid": "141000",
      "shortname": "曲沃",
      "leveltype": "3",
      "citycode": "0357",
      "zipcode": "043400",
      "lng": "111.47525",
      "lat": "35.64119",
      "pinyin": "Quwo",
      "status": "1"
    },
    {
      "id": "141022",
      "name": "翼城县",
      "parentid": "141000",
      "shortname": "翼城",
      "leveltype": "3",
      "citycode": "0357",
      "zipcode": "043500",
      "lng": "111.7181",
      "lat": "35.73881",
      "pinyin": "Yicheng",
      "status": "1"
    },
    {
      "id": "141023",
      "name": "襄汾县",
      "parentid": "141000",
      "shortname": "襄汾",
      "leveltype": "3",
      "citycode": "0357",
      "zipcode": "041500",
      "lng": "111.44204",
      "lat": "35.87711",
      "pinyin": "Xiangfen",
      "status": "1"
    },
    {
      "id": "141024",
      "name": "洪洞县",
      "parentid": "141000",
      "shortname": "洪洞",
      "leveltype": "3",
      "citycode": "0357",
      "zipcode": "041600",
      "lng": "111.67501",
      "lat": "36.25425",
      "pinyin": "Hongtong",
      "status": "1"
    },
    {
      "id": "141025",
      "name": "古县",
      "parentid": "141000",
      "shortname": "古县",
      "leveltype": "3",
      "citycode": "0357",
      "zipcode": "042400",
      "lng": "111.92041",
      "lat": "36.26688",
      "pinyin": "Guxian",
      "status": "1"
    },
    {
      "id": "141026",
      "name": "安泽县",
      "parentid": "141000",
      "shortname": "安泽",
      "leveltype": "3",
      "citycode": "0357",
      "zipcode": "042500",
      "lng": "112.24981",
      "lat": "36.14803",
      "pinyin": "Anze",
      "status": "1"
    },
    {
      "id": "141027",
      "name": "浮山县",
      "parentid": "141000",
      "shortname": "浮山",
      "leveltype": "3",
      "citycode": "0357",
      "zipcode": "042600",
      "lng": "111.84744",
      "lat": "35.96854",
      "pinyin": "Fushan",
      "status": "1"
    },
    {
      "id": "141028",
      "name": "吉县",
      "parentid": "141000",
      "shortname": "吉县",
      "leveltype": "3",
      "citycode": "0357",
      "zipcode": "042200",
      "lng": "110.68148",
      "lat": "36.09873",
      "pinyin": "Jixian",
      "status": "1"
    },
    {
      "id": "141029",
      "name": "乡宁县",
      "parentid": "141000",
      "shortname": "乡宁",
      "leveltype": "3",
      "citycode": "0357",
      "zipcode": "042100",
      "lng": "110.84652",
      "lat": "35.97072",
      "pinyin": "Xiangning",
      "status": "1"
    },
    {
      "id": "141030",
      "name": "大宁县",
      "parentid": "141000",
      "shortname": "大宁",
      "leveltype": "3",
      "citycode": "0357",
      "zipcode": "042300",
      "lng": "110.75216",
      "lat": "36.46624",
      "pinyin": "Daning",
      "status": "1"
    },
    {
      "id": "141031",
      "name": "隰县",
      "parentid": "141000",
      "shortname": "隰县",
      "leveltype": "3",
      "citycode": "0357",
      "zipcode": "041300",
      "lng": "110.93881",
      "lat": "36.69258",
      "pinyin": "Xixian",
      "status": "1"
    },
    {
      "id": "141032",
      "name": "永和县",
      "parentid": "141000",
      "shortname": "永和",
      "leveltype": "3",
      "citycode": "0357",
      "zipcode": "041400",
      "lng": "110.63168",
      "lat": "36.7584",
      "pinyin": "Yonghe",
      "status": "1"
    },
    {
      "id": "141033",
      "name": "蒲县",
      "parentid": "141000",
      "shortname": "蒲县",
      "leveltype": "3",
      "citycode": "0357",
      "zipcode": "041200",
      "lng": "111.09674",
      "lat": "36.41243",
      "pinyin": "Puxian",
      "status": "1"
    },
    {
      "id": "141034",
      "name": "汾西县",
      "parentid": "141000",
      "shortname": "汾西",
      "leveltype": "3",
      "citycode": "0357",
      "zipcode": "031500",
      "lng": "111.56811",
      "lat": "36.65063",
      "pinyin": "Fenxi",
      "status": "1"
    },
    {
      "id": "141081",
      "name": "侯马市",
      "parentid": "141000",
      "shortname": "侯马",
      "leveltype": "3",
      "citycode": "0357",
      "zipcode": "043000",
      "lng": "111.37207",
      "lat": "35.61903",
      "pinyin": "Houma",
      "status": "1"
    },
    {
      "id": "141082",
      "name": "霍州市",
      "parentid": "141000",
      "shortname": "霍州",
      "leveltype": "3",
      "citycode": "0357",
      "zipcode": "031400",
      "lng": "111.755",
      "lat": "36.5638",
      "pinyin": "Huozhou",
      "status": "1"
    },
    {
      "id": "141100",
      "name": "吕梁市",
      "parentid": "140000",
      "shortname": "吕梁",
      "leveltype": "2",
      "citycode": "0358",
      "zipcode": "033000",
      "lng": "111.134335",
      "lat": "37.524366",
      "pinyin": "Lvliang",
      "status": "1"
    },
    {
      "id": "141102",
      "name": "离石区",
      "parentid": "141100",
      "shortname": "离石",
      "leveltype": "3",
      "citycode": "0358",
      "zipcode": "033000",
      "lng": "111.15059",
      "lat": "37.5177",
      "pinyin": "Lishi",
      "status": "1"
    },
    {
      "id": "141121",
      "name": "文水县",
      "parentid": "141100",
      "shortname": "文水",
      "leveltype": "3",
      "citycode": "0358",
      "zipcode": "032100",
      "lng": "112.02829",
      "lat": "37.43841",
      "pinyin": "Wenshui",
      "status": "1"
    },
    {
      "id": "141122",
      "name": "交城县",
      "parentid": "141100",
      "shortname": "交城",
      "leveltype": "3",
      "citycode": "0358",
      "zipcode": "030500",
      "lng": "112.1585",
      "lat": "37.5512",
      "pinyin": "Jiaocheng",
      "status": "1"
    },
    {
      "id": "141123",
      "name": "兴县",
      "parentid": "141100",
      "shortname": "兴县",
      "leveltype": "3",
      "citycode": "0358",
      "zipcode": "033600",
      "lng": "111.12692",
      "lat": "38.46321",
      "pinyin": "Xingxian",
      "status": "1"
    },
    {
      "id": "141124",
      "name": "临县",
      "parentid": "141100",
      "shortname": "临县",
      "leveltype": "3",
      "citycode": "0358",
      "zipcode": "033200",
      "lng": "110.99282",
      "lat": "37.95271",
      "pinyin": "Linxian",
      "status": "1"
    },
    {
      "id": "141125",
      "name": "柳林县",
      "parentid": "141100",
      "shortname": "柳林",
      "leveltype": "3",
      "citycode": "0358",
      "zipcode": "033300",
      "lng": "110.88922",
      "lat": "37.42932",
      "pinyin": "Liulin",
      "status": "1"
    },
    {
      "id": "141126",
      "name": "石楼县",
      "parentid": "141100",
      "shortname": "石楼",
      "leveltype": "3",
      "citycode": "0358",
      "zipcode": "032500",
      "lng": "110.8352",
      "lat": "36.99731",
      "pinyin": "Shilou",
      "status": "1"
    },
    {
      "id": "141127",
      "name": "岚县",
      "parentid": "141100",
      "shortname": "岚县",
      "leveltype": "3",
      "citycode": "0358",
      "zipcode": "033500",
      "lng": "111.67627",
      "lat": "38.27874",
      "pinyin": "Lanxian",
      "status": "1"
    },
    {
      "id": "141128",
      "name": "方山县",
      "parentid": "141100",
      "shortname": "方山",
      "leveltype": "3",
      "citycode": "0358",
      "zipcode": "033100",
      "lng": "111.24011",
      "lat": "37.88979",
      "pinyin": "Fangshan",
      "status": "1"
    },
    {
      "id": "141129",
      "name": "中阳县",
      "parentid": "141100",
      "shortname": "中阳",
      "leveltype": "3",
      "citycode": "0358",
      "zipcode": "033400",
      "lng": "111.1795",
      "lat": "37.35715",
      "pinyin": "Zhongyang",
      "status": "1"
    },
    {
      "id": "141130",
      "name": "交口县",
      "parentid": "141100",
      "shortname": "交口",
      "leveltype": "3",
      "citycode": "0358",
      "zipcode": "032400",
      "lng": "111.18103",
      "lat": "36.98213",
      "pinyin": "Jiaokou",
      "status": "1"
    },
    {
      "id": "141181",
      "name": "孝义市",
      "parentid": "141100",
      "shortname": "孝义",
      "leveltype": "3",
      "citycode": "0358",
      "zipcode": "032300",
      "lng": "111.77362",
      "lat": "37.14414",
      "pinyin": "Xiaoyi",
      "status": "1"
    },
    {
      "id": "141182",
      "name": "汾阳市",
      "parentid": "141100",
      "shortname": "汾阳",
      "leveltype": "3",
      "citycode": "0358",
      "zipcode": "032200",
      "lng": "111.7882",
      "lat": "37.26605",
      "pinyin": "Fenyang",
      "status": "1"
    },
    {
      "id": "150000",
      "name": "内蒙古自治区",
      "parentid": "100000",
      "shortname": "内蒙古",
      "leveltype": "1",
      "citycode": "",
      "zipcode": "",
      "lng": "111.670801",
      "lat": "40.818311",
      "pinyin": "Inner Mongolia",
      "status": "1"
    },